监测点编码,监测点名称,城市,经度,纬度,对照点
1001A,万寿西宫,北京,116.3621,39.8784,N
1002A,定陵(对照点),北京,116.2202,40.2915,Y
1003A,东四,北京,116.4174,39.9289,N
1004A,天坛,北京,116.4072,39.8863,N
1005A,农展馆,北京,116.462,39.9365,N
1006A,官园,北京,116.3392,39.9295,N
1007A,海淀万柳,北京,116.2878,39.9611,N
1008A,顺义新城,北京,116.6636,40.135,N
1009A,怀柔镇,北京,116.6275,40.3275,N
1010A,昌平镇,北京,116.2296,40.217,N
1011A,奥体中心,北京,116.3966,39.9821,N
1012A,古城,北京,116.184,39.9136,N
1013A,市监测中心(停运150702),天津,117.151,39.097,Y
1014A,南口路(停运161122),天津,117.193,39.173,Y
1015A,勤俭道,天津,117.1444,39.1661,N
1016A,南京路(停运160601),天津,117.184,39.1205,Y
1017A,大直沽八号路,天津,117.237,39.1082,N
1018A,前进道,天津,117.202,39.0927,N
1019A,淮河道,天津,117.1837,39.2133,N
1020A,天山路(停运150702),天津,117.269,39.1337,Y
1021A,跃进路,天津,117.307,39.0877,N
1022A,梅江小区(停运150702),天津,117.221,39.06,Y
1023A,第四大街,天津,117.707,39.0343,N
1024A,永明路,天津,117.457,38.8394,N
1025A,航天路(停运170426),天津,117.401,39.124,Y
1026A,汉北路,天津,117.764,39.1587,N
1027A,团泊洼(对照点),天津,117.157,38.9194,Y
1028A,化工学校(停运150703),石家庄,114.5637,38.0549,Y
1029A,职工医院,石家庄,114.4422,38.0444,N
1030A,高新区,石家庄,114.6063,38.0266,N
1031A,西北水源,石家庄,114.4898,38.1328,N
1032A,西南高教,石家庄,114.4586,38.0058,N
1033A,世纪公园,石家庄,114.5331,38.0178,N
1034A,人民会堂,石家庄,114.509,38.0457,N
1035A,封龙山(对照点),石家庄,114.3524,37.8911,Y
1036A,供销社(停运200110),唐山,118.1662,39.6308,Y
1037A,雷达站,唐山,118.131,39.6363,N
1038A,物资局,唐山,118.1725,39.6334,N
1039A,陶瓷公司(停运200109),唐山,118.2185,39.6679,Y
1040A,十二中,唐山,118.1705,39.6506,N
1041A,小山,唐山,118.1869,39.622,N
1042A,北戴河环保局,秦皇岛,119.5134,39.8207,N
1043A,第一关,秦皇岛,119.7493,40.0116,N
1044A,监测站,秦皇岛,119.5897,39.9499,N
1045A,市政府,秦皇岛,-,-,N
1046A,建设大厦,秦皇岛,119.5251,39.9041,N
1047A,环保局,邯郸,114.5129,36.61763,N
1048A,东污水处理厂,邯郸,114.5302,36.6116,N
1049A,矿院,邯郸,114.4918,36.5713,N
1050A,丛台公园,邯郸,114.484,36.6133,N
1051A,游泳馆,保定,115.493,38.8632,N
1052A,华电二区,保定,115.5213,38.8959,N
1053A,接待中心,保定,115.4713,38.9108,N
1054A,地表水厂,保定,115.4612,38.8416,N
1055A,胶片厂,保定,115.4323,38.8697,N
1056A,监测站,保定,115.5086,38.8639,N
1057A,人民公园,张家口,114.8883,40.8336,N
1058A,探机厂,张家口,114.892,40.79481,Y
1059A,五金库,张家口,114.8687,40.8042,N
1060A,世纪豪园,张家口,114.8902,40.762,N
1061A,北泵房(对照点),张家口,114.8916,40.8661,Y
1062A,铁路,承德,117.9531,40.9081,N
1063A,中国银行,承德,117.9392,40.9763,N
1064A,开发区,承德,117.9503,40.928,N
1065A,文化中心,承德,117.8051,40.9655,N
1066A,离宫(对照点),承德,117.9268,41.0026,Y
1067A,药材公司,廊坊,116.6708,39.5111,N
1068A,开发区,廊坊,116.7214,39.5589,N
1069A,环境监测监理中心,廊坊,116.7150,39.5571,Y
1070A,北华航天学院,廊坊,116.7244,39.5269,N
1071A,沧县城建局,沧州,116.8842,38.2991,N
1072A,电视转播站,沧州,116.8584,38.3254,N
1073A,市环保局,沧州,116.8709,38.3228,N
1074A,电机北厂,衡水,115.6838,37.7541,N
1075A,市监测站,衡水,115.6303,37.7316,N
1076A,市环保局,衡水,115.6906,37.7390,Y
1077A,达活泉,邢台,114.4704,37.0886,N
1078A,邢师高专,邢台,114.5062,37.0349,N
1079A,路桥公司,邢台,114.5237,37.0851,N
1080A,市环保局,邢台,114.4725,37.0719,N
1081A,尖草坪,太原,112.5139,37.8873,N
1082A,涧河,太原,112.573,37.9103,Y
1083A,上兰(对照点),太原,112.434,38.0108,Y
1084A,晋源,太原,112.469,37.7124,N
1085A,小店,太原,112.5583,37.7394,N
1086A,桃园,太原,112.5369,37.8692,N
1087A,坞城,太原,112.57,37.8195,N
1088A,南寨,太原,112.549,37.9854,N
1089A,金胜,太原,112.4701,37.782,N
1090A,呼市一监,呼和浩特,111.6507,40.7517,N
1091A,小召,呼和浩特,111.6572,40.8033,N
1092A,兴松小区(停运200113),呼和浩特,111.659,40.8452,Y
1093A,糖厂(停运200113),呼和浩特,111.608,40.8144,Y
1094A,如意水处理厂,呼和浩特,111.7516,40.8369,N
1095A,二十九中,呼和浩特,111.7276,40.8062,N
1096A,工大金川校区,呼和浩特,111.5512,40.7866,N
1097A,化肥厂生活区,呼和浩特,111.717,40.7612,N
1098A,森林路(对照点),沈阳,123.6836,41.9339,Y
1099A,浑南东路,沈阳,123.505,41.7406,N
1100A,新秀街,沈阳,123.4231,41.6989,N
1101A,沧海路,沈阳,123.284,41.7694,Y
1102A,东陵路,沈阳,123.5903,41.8411,N
1103A,陵东街,沈阳,123.4264,41.8467,N
1104A,文化路,沈阳,123.4114,41.7653,N
1105A,小河沿,沈阳,123.4678,41.7867,N
1106A,太原街,沈阳,123.4017,41.7972,N
1107A,南十东路,沈阳,123.3606,41.7806,Y
1108A,京沈街,沈阳,123.3783,41.9228,N
1109A,甘井子,大连,121.612,38.9741,N
1110A,周水子,大连,121.565,38.9511,N
1111A,星海三站,大连,121.5637,38.8845,N
1112A,青泥洼桥,大连,121.6302,38.9117,N
1113A,傅家庄,大连,121.6251,38.8638,N
1114A,七贤岭,大连,121.5213,38.8661,N
1115A,旅顺,大连,121.2529,38.8061,N
1116A,金州,大连,121.7485,39.1311,N
1117A,开发区,大连,121.7811,39.0496,N
1118A,双D港,大连,121.9762,39.0631,N
1119A,食品厂,长春,125.3325,43.9166,N
1120A,客车厂,长春,125.2863,43.9027,N
1121A,邮电学院,长春,125.2841,43.8463,N
1122A,劳动公园,长春,125.3716,43.8772,N
1123A,园林处,长春,125.3297,43.8805,N
1124A,净月潭,长春,125.4605,43.79,N
1125A,甩湾子(对照点),长春,125.7194,43.515,Y
1126A,经开区环卫处,长春,125.3863,43.8447,N
1127A,高新区管委会,长春,125.245,43.7783,N
1128A,岱山公园,长春,125.1761,43.8325,N
1129A,岭北(对照点),哈尔滨,126.5422,45.755,Y
1130A,松北商大,哈尔滨,126.561,45.8167,N
1131A,阿城会宁,哈尔滨,126.979,45.5419,N
1132A,南岗学府路,哈尔滨,126.599,45.7222,N
1133A,太平宏伟公园,哈尔滨,126.689,45.7733,N
1134A,道外承德广场,哈尔滨,126.635,45.7667,N
1135A,香坊红旗大街,哈尔滨,126.685,45.7319,N
1136A,动力和平路,哈尔滨,126.6411,45.7258,N
1137A,道里建国路,哈尔滨,126.593,45.7478,N
1138A,平房东轻厂,哈尔滨,126.615,45.61,N
1139A,呼兰师专,哈尔滨,126.595,45.9855,N
1140A,省农科院,哈尔滨,126.6206,45.6842,N
1141A,普陀,上海,121.4,31.238,N
1142A,十五厂,上海,121.478,31.2036,N
1143A,虹口,上海,121.467,31.3008,N
1144A,徐汇上师大,上海,121.412,31.1654,N
1145A,杨浦四漂,上海,121.536,31.2659,N
1146A,青浦淀山湖(对照点),上海,120.978,31.0935,Y
1147A,静安监测站,上海,121.425,31.2261,N
1148A,浦东川沙,上海,121.703,31.1907,N
1149A,浦东新区监测站,上海,121.533,31.2284,N
1150A,浦东张江,上海,121.577,31.2071,N
1151A,迈皋桥,南京,118.8086,32.1065,N
1152A,草场门,南京,118.7538,32.0551,N
1153A,山西路,南京,118.7794,32.0745,N
1154A,中华门,南京,118.7752,32.0023,N
1155A,瑞金路,南京,118.8109,32.0309,N
1156A,玄武湖,南京,118.7997,32.0754,N
1157A,浦口,南京,118.6414,32.0931,N
1158A,奥体中心,南京,118.7356,31.9996,N
1159A,仙林大学城,南京,118.9125,32.1028,N
1160A,上方山(对照点),苏州,120.561,31.2472,Y
1161A,南门,苏州,120.628,31.2864,N
1162A,彩香,苏州,120.591,31.3019,N
1163A,轧钢厂,苏州,120.596,31.3264,N
1164A,吴中区,苏州,120.613,31.2703,N
1165A,苏州新区,苏州,120.543,31.2994,N
1166A,苏州工业园区,苏州,120.669,31.3097,N
1167A,相城区,苏州,120.641,31.3708,N
1168A,狼山街道,南通,120.9098,31.9663,N
1169A,虹桥,南通,120.86,32.0005,N
1170A,城中,南通,120.87,32.02,N
1171A,星湖花园,南通,120.94,31.93,N
1172A,紫琅学院,南通,120.81,32.0417,N
1173A,市环境监测站,连云港,119.176,34.5885,N
1174A,洪门派出所,连云港,119.141,34.5896,Y
1175A,墟沟核电专家村,连云港,119.368,34.7507,Y
1176A,开发区恒瑞医药公司,连云港,119.348,34.6984,Y
1177A,黄河新村,徐州,117.179,34.2761,N
1178A,淮塔,徐州,117.1918,34.2384,N
1179A,铜山兽医院,徐州,117.192,34.3083,Y
1180A,新城区,徐州,117.256,34.2153,N
1181A,桃园路,徐州,117.244,34.2911,N
1182A,农科院,徐州,117.2933,34.2778,N
1183A,铜山区环保局,徐州,117.166,34.1806,Y
1184A,城东财政所(停运180626),扬州,119.46,32.3878,Y
1185A,市监测站,扬州,119.404,32.41,Y
1186A,邗江监测站,扬州,119.389,32.3761,N
1187A,第四医院(停运161107),扬州,119.439,32.4033,Y
1188A,雪浪,无锡,120.269,31.4867,N
1189A,黄巷,无锡,120.275,31.6219,N
1190A,曹张,无锡,120.294,31.56,N
1191A,漆塘,无锡,120.242,31.5031,N
1192A,东亭,无锡,120.3489,31.5863,N
1193A,旺庄,无锡,120.354,31.5475,N
1194A,荣巷,无锡,120.245,31.5631,N
1195A,堰桥,无锡,120.299,31.6817,N
1196A,市监测站,常州,119.9633,31.762,N
1197A,城建学校(停运161026),常州,119.933,31.7786,Y
1198A,常工院(停运161026),常州,119.962,31.8089,Y
1199A,潞城(停运161026),常州,120.0393,31.7638,Y
1200A,武进监测站,常州,119.9468,31.7069,N
1201A,安家,常州,119.9255,31.9087,N
1202A,环境监测站,镇江,,,N
1203A,新区办事处,镇江,119.6707,32.1875,N
1204A,职教中心,镇江,119.4974,32.1968,N
1205A,丹徒区监测站,镇江,119.4303,32.1328,N
1206A,公园路,泰州,119.905,32.4878,N
1207A,莲花,泰州,119.9189,32.4625,N
1208A,高港区政府,泰州,119.882,32.303,Y
1209A,留学生创业园,泰州,119.888,32.4639,N
1210A,钵池山,淮安,119.036,33.5981,N
1211A,北京南路,淮安,119.007,33.575,N
1212A,市监测站,淮安,118.989,33.6067,N
1213A,楚州区监测站,淮安,119.135,33.5039,N
1214A,淮阴区监测站,淮安,119.0186,33.6297,N
1215A,盐城电厂,盐城,120.118,33.4022,N
1216A,市监测站,盐城,120.156,33.3942,N
1217A,文峰中学,盐城,120.129,33.3719,Y
1218A,开发区管委会,盐城,120.2144,33.38,N
1219A,市监测站(停运161107),宿迁,118.2658,33.9600,Y
1220A,宿迁学院,宿迁,118.293,33.9528,N
1221A,宿迁中学,宿迁,118.2442,33.9592,N
1222A,宿豫区环保局,宿迁,118.3214,33.9506,Y
1223A,滨江,杭州,120.2072,30.2111,N
1224A,西溪,杭州,120.0633,30.2747,N
1225A,千岛湖(对照点),杭州,119.026,29.635,Y
1226A,下沙,杭州,120.3461,30.3153,N
1227A,卧龙桥,杭州,120.1269,30.2456,N
1228A,浙江农大,杭州,120.1903,30.2692,N
1229A,朝晖五区,杭州,120.157,30.2897,N
1230A,和睦小学,杭州,120.1197,30.3119,N
1231A,临平镇,杭州,120.3019,30.4183,N
1232A,城厢镇,杭州,120.2697,30.1819,N
1233A,云栖,杭州,120.0883,30.1808,N
1234A,区环保大楼,宁波,121.8358,29.911,N
1235A,万里学院,宁波,121.56,29.82,N
1236A,龙赛医院,宁波,121.713,29.9572,N
1237A,三江中学,宁波,121.554,29.8906,Y
1238A,市政管理站,宁波,121.615,29.9017,Y
1239A,钱湖水厂,宁波,121.633,29.7733,N
1240A,太古小学,宁波,121.5856,29.8635,N
1241A,市环境监测中心,宁波,121.524,29.8674,N
1242A,瓯海,温州,120.634,28.0089,N
1243A,南浦,温州,120.6748,27.9939,N
1244A,龙湾,温州,120.76,27.9747,N
1245A,市站,温州,120.6709,28.0167,N
1246A,袍江站,绍兴,120.598,30.0911,N
1247A,城东开发委,绍兴,120.6053,29.9928,N
1248A,市环保站,绍兴,120.576,30.007,Y
1249A,城北水厂,湖州,120.1,30.8867,Y
1250A,城西水厂,湖州,120.0751,30.8669,N
1251A,吉山新村,湖州,120.093,30.8617,Y
1252A,清河小学,嘉兴,120.7436,30.778,N
1253A,嘉兴学院,嘉兴,120.726,30.7478,N
1254A,监测站,嘉兴,,,N
1255A,黄岩环保大楼,台州,121.273,28.6459,N
1256A,台州环保大楼,台州,121.419,28.6542,N
1257A,路桥田洋王,台州,121.377,28.5773,N
1258A,定海檀枫,舟山,122.122,30.0203,N
1259A,普陀东港,舟山,122.3094,29.9558,N
1260A,临城新区,舟山,122.19,29.9944,N
1261A,四中(停运161031),金华,119.649,29.1131,N
1262A,十五中,金华,119.647,29.077,N
1263A,监测站,金华,119.686,29.1029,N
1264A,环保大楼,衢州,118.8692,28.9398,N
1265A,实验学校,衢州,118.8709,28.9666,N
1266A,衢州学院,衢州,118.8621,28.9808,N
1267A,监测站大楼,丽水,119.914,28.4514,N
1268A,莲都小学,丽水,119.93,28.4586,N
1269A,余庄前,丽水,119.879,28.4231,N
1270A,明珠广场,合肥,117.1959,31.7848,N
1271A,三里街,合肥,117.3072,31.8764,N
1272A,琥珀山庄,合肥,117.2588,31.8707,N
1273A,董铺水库(对照点),合肥,117.1604,31.9052,Y
1274A,长江中路,合肥,117.25,31.8571,N
1275A,庐阳区,合肥,117.266,31.9436,N
1276A,瑶海区,合肥,117.336,31.8586,N
1277A,包河区,合肥,117.3027,31.7964,N
1278A,滨湖新区,合肥,117.2776,31.7385,N
1279A,高新区,合肥,117.1318,31.8403,N
1280A,鼓山(对照点),福州,119.3903,26.0543,Y
1281A,快安,福州,119.414,26.0258,N
1282A,师大,福州,119.2681,26.0504,N
1283A,五四北路,福州,119.2984,26.1028,N
1284A,杨桥西路,福州,119.2648,26.0768,N
1285A,紫阳,福州,119.317,26.0746,N
1286A,溪东(对照点),厦门,118.1608,24.8169,Y
1287A,洪文,厦门,118.1514,24.4767,N
1288A,鼓浪屿,厦门,118.0661,24.4444,N
1290A,省外办,南昌,115.8931,28.6843,N
1291A,省林业公司,南昌,115.8886,28.7003,N
1292A,林科所,南昌,115.8126,28.7442,N
1293A,京东镇政府(停运200108),南昌,115.973,28.6969,Y
1294A,建工学校,南昌,115.8518,28.687,N
1295A,象湖,南昌,115.8921,28.6424,N
1296A,武术学校(对照点),南昌,115.7423,28.7996,Y
1297A,石化(停运170322),南昌,115.912,28.6131,Y
1298A,省站,南昌,115.9314,28.6842,N
1299A,科干所,济南,116.9862,36.6114,N
1300A,农科所,济南,116.9376,36.665,N
1301A,开发区,济南,117.1265,36.6734,N
1302A,济南化工厂,济南,116.989,36.6872,Y
1303A,省种子仓库,济南,117.0624,36.6868,N
1304A,机床二厂,济南,116.9489,36.6447,N
1305A,市监测站,济南,117.0495,36.663,N
1306A,长清党校,济南,116.7675,36.5484,N
1307A,仰口(对照点),青岛,120.6659,36.2403,Y
1308A,李沧区子站,青岛,120.3905,36.1851,N
1309A,市北区子站,青岛,120.3471,36.0699,N
1310A,市南区东部子站,青岛,120.4134,36.0658,N
1311A,四方区子站,青岛,120.3664,36.1032,N
1312A,市南区西部子站,青岛,120.2994,36.054,N
1313A,崂山区子站,青岛,120.4581,36.0858,N
1314A,黄岛区子站,青岛,120.1983,35.9608,N
1315A,城阳区子站,青岛,120.3999,36.3083,N
1316A,烟厂,郑州,113.69031,34.76122,N
1317A,郑纺机,郑州,113.65724,34.77134,N
1318A,银行学校,郑州,113.67526,34.80246,N
1319A,供水公司,郑州,113.56746,34.81334,N
1320A,经开区管委,郑州,113.7329,34.7178,N
1321A,四十七中,郑州,113.73961,34.77172,N
1322A,市监测站,郑州,113.60532,34.74838,N
1323A,河医大,郑州,113.64164,34.7525,N
1324A,岗李水库(对照点),郑州,113.51488,34.91089,Y
1325A,东湖梨园,武汉,114.3677,30.5584,N
1326A,汉阳月湖,武汉,114.2529,30.558,N
1327A,汉口花桥,武汉,114.282,30.6189,N
1328A,武昌紫阳,武汉,114.3025,30.5332,N
1329A,青山钢花,武汉,114.3646,30.6217,N
1330A,沌口新区,武汉,114.1566,30.4825,N
1331A,汉口江滩,武汉,114.3014,30.5944,N
1332A,东湖高新,武汉,114.3894,30.4822,N
1333A,吴家山,武汉,114.135,30.6319,N
1334A,沉湖七壕(对照点),武汉,113.8454,30.2917,Y
1335A,经开区环保局,长沙,113.0833,28.2325,N
1336A,高开区环保局,长沙,112.8872,28.2189,N
1337A,马坡岭,长沙,113.0792,28.2053,N
1338A,湖南师范大学,长沙,112.9394,28.19,N
1339A,雨花区环保局,长沙,113.0178,28.1322,N
1340A,伍家岭,长沙,112.9792,28.2597,N
1341A,火车新站,长沙,113.0014,28.1944,N
1342A,天心区环保局,长沙,112.9844,28.1178,N
1343A,湖南中医药大学,长沙,112.8908,28.1308,N
1344A,沙坪(对照点),长沙,112.9581,28.3611,Y
1345A,广雅中学,广州,113.2347,23.1423,N
1346A,市五中,广州,113.2612,23.105,N
1347A,天河职幼,广州,,,N
1348A,广东商学院,广州,113.3478,23.0916,N
1349A,市八十六中,广州,113.4332,23.1047,N
1350A,番禺中学,广州,113.3505,22.9483,N
1351A,花都师范,广州,113.2146,23.3916,N
1352A,市监测站,广州,113.2597,23.1331,N
1353A,九龙镇镇龙,广州,113.5618,23.312,N
1354A,麓湖,广州,113.2765,23.1544,N
1355A,帽峰山森林公园(对照点),广州,113.443,23.3035,Y
1356A,通心岭子站,深圳,114.1063,22.5545,N
1357A,洪湖,深圳,114.117,22.5625,N
1358A,华侨城,深圳,113.987,22.5417,N
1359A,南海子站,深圳,113.9181,22.5171,N
1360A,盐田,深圳,114.2458,22.5689,N
1361A,龙岗,深圳,114.2283,22.7244,N
1362A,西乡,深圳,113.8953,22.5861,N
1363A,南澳,深圳,114.494,22.5422,N
1364A,葵涌,深圳,114.41,22.6342,N
1365A,梅沙,深圳,114.297,22.5978,N
1366A,观澜,深圳,114.0678,22.738,N
1367A,吉大,珠海,113.5814,22.2618,N
1368A,前山,珠海,113.4881,22.2335,N
1369A,唐家,珠海,113.628,22.4251,N
1370A,斗门,珠海,113.299,22.2281,N
1371A,湾梁,佛山,113.1294,23.0067,N
1372A,华材职中,佛山,113.1083,23.0478,N
1373A,南海气象局,佛山,113.144,23.0453,N
1374A,顺德苏岗,佛山,113.2881,22.8094,N
1375A,容桂街道办,佛山,113.2544,22.7642,N
1376A,高明孔堂,佛山,112.8383,22.8678,N
1377A,三水监测站,佛山,112.8836,23.1588,N
1378A,三水云东海,佛山,112.867,23.185,N
1379A,华柏园,中山,113.3769,22.5211,N
1380A,张溪,中山,113.3881,22.5497,N
1381A,紫马岭,中山,113.4075,22.5111,N
1382A,长江旅游区(对照点),中山,113.4411,22.4853,Y
1383A,北街,江门,113.1064,22.6058,N
1384A,西区,江门,113.0731,22.5835,N
1385A,圭峰西,江门,113.0219,22.5311,N
1386A,东湖,江门,113.0828,22.5947,N
1387A,东城主山,东莞,113.7875,23.0457,N
1388A,南城元岭,东莞,113.7533,23.0202,N
1389A,莞城梨川,东莞,113.7547,23.0494,N
1390A,东城石井,东莞,113.7944,23.0128,N
1391A,南城西平,东莞,113.7383,22.9658,N
1392A,河南岸金山湖子站,惠州,114.4183,23.0528,N
1393A,下埔横江三路子站,惠州,114.4053,23.0822,N
1394A,江北云山西路子站,惠州,114.4103,23.1142,N
1395A,惠阳区承修路船湖子站,惠州,114.4645,22.7833,N
1396A,大亚湾管委会子站,惠州,114.5317,22.7422,N
1397A,睦岗子站,肇庆,112.4267,23.0706,N
1398A,城中子站,肇庆,112.4645,23.0475,N
1399A,坑口子站,肇庆,112.5544,23.1522,N
1400A,七星岩子站(对照点),肇庆,112.4753,23.1,Y
1401A,二十一中,南宁,108.3103,22.7881,N
1402A,北湖,南宁,108.3141,22.8528,N
1403A,市监测站,南宁,108.3206,22.8225,N
1404A,大自然花园,南宁,108.3829,22.8037,N
1405A,仙葫(对照点),南宁,108.4394,22.7904,Y
1406A,区农职院,南宁,108.2397,22.8467,N
1407A,英华嘉园,南宁,108.3275,22.735,N
1408A,沙井镇街道办,南宁,108.2257,22.7757,N
1409A,东寨港(对照点),海口,110.576,19.9507,Y
1410A,海南大学,海口,110.3232,20.0574,N
1411A,秀英海南医院,海口,110.283,20.0053,N
1412A,海南师范大学,海口,110.338,19.9969,N
1413A,龙华路环保局宿舍,海口,110.33,20.0356,N
1414A,缙云山(对照点),重庆,106.3787,29.8279,Y
1415A,高家花园(停运161118),重庆,106.46,29.5736,Y
1416A,天生,重庆,106.4213,29.8253,N
1417A,两路,重庆,106.6263,29.7228,N
1418A,虎溪,重庆,106.2953,29.5983,N
1419A,南坪,重庆,106.5777,29.5102,N
1420A,唐家沱,重庆,106.6556,29.6277,N
1421A,茶园,重庆,106.6349,29.4906,N
1422A,白市驿,重庆,106.3754,29.4572,N
1423A,解放碑(停运170928),重庆,106.571,29.5642,Y
1424A,杨家坪(停运161118),重庆,106.512,29.5164,Y
1425A,空港,重庆,106.6205,29.7166,N
1426A,新山村,重庆,106.4782,29.4875,N
1427A,礼嘉,重庆,106.5616,29.6453,N
1428A,蔡家,重庆,106.4522,29.7091,N
1429A,鱼新街,重庆,106.5093,29.3917,N
1430A,南泉(停运161119),重庆,106.591,29.4272,Y
1431A,金泉两河,成都,103.9728,30.7236,N
1432A,十里店,成都,104.1419,30.6764,N
1433A,三瓦窑,成都,104.0594,30.5767,N
1434A,沙河铺,成都,104.1122,30.6306,N
1435A,梁家巷,成都,104.074,30.685,N
1436A,草堂寺（已停运）,成都,104.026,30.6544,N
1437A,君平街,成都,104.0431,30.6556,N
1438A,灵岩寺(对照点),成都,103.6202,31.0201,Y
1439A,马鞍山,贵阳,106.6899,26.5998,N
1440A,市环保站,贵阳,106.6971,26.5694,N
1441A,鉴湖路,贵阳,106.6243,26.6266,N
1442A,燕子冲,贵阳,106.7487,26.6343,N
1443A,碧云窝,贵阳,106.6555,26.4365,N
1444A,中院村,贵阳,106.694,26.5161,N
1445A,红边门,贵阳,106.7109,26.6027,N
1446A,新华路,贵阳,106.7164,26.5699,N
1447A,太慈桥,贵阳,106.674,26.5424,N
1449A,关上,昆明,102.743,25.0124,Y
1450A,呈贡新区,昆明,102.8204,24.8886,N
1451A,西山森林公园(对照点),昆明,102.6251,24.9608,Y
1452A,龙泉镇,昆明,102.7252,25.0902,N
1453A,东风东路,昆明,102.7266,25.0375,N
1454A,金鼎山,昆明,102.6742,25.0669,N
1455A,碧鸡广场,昆明,102.6644,25.0401,N
1456A,八廓街,拉萨,91.1319,29.6514,N
1457A,市环保局,拉萨,91.1221,29.6747,N
1458A,区监测站,拉萨,91.0874,29.6475,N
1459A,西藏大学,拉萨,91.1774,29.6541,N
1460A,区辐射站,拉萨,90.9798,29.6588,N
1461A,拉萨火车站,拉萨,91.0834,29.6292,N
1462A,高压开关厂,西安,108.882,34.2749,N
1463A,兴庆小区,西安,108.993,34.2629,N
1464A,纺织城,西安,109.06,34.2572,N
1465A,小寨,西安,108.9356,34.2173,N
1466A,市人民体育场,西安,108.954,34.2713,N
1467A,高新西区,西安,108.8922,34.2322,N
1468A,经开区,西安,108.935,34.3474,N
1469A,长安区,西安,108.906,34.1546,N
1470A,阎良区,西安,109.2,34.6575,N
1471A,临潼区,西安,109.2186,34.3731,N
1472A,草滩(对照点),西安,108.869,34.378,Y
1473A,曲江文化产业集团,西安,108.985,34.1978,N
1474A,广运潭,西安,109.051,34.3213,N
1475A,职工医院（20181115停运）,兰州,103.7222,36.0812,N
1476A,兰炼宾馆,兰州,103.631,36.1031,N
1477A,榆中兰大校区(对照点),兰州,104.1373,35.9454,Y
1478A,生物制品所,兰州,103.8412,36.0726,N
1479A,铁路设计院,兰州,103.831,36.0464,N
1480A,市环境监测站,西宁,101.748,36.6428,N
1481A,省医药仓库,西宁,101.749,36.6922,Y
1482A,四陆医院,西宁,101.834,36.5819,N
1483A,第五水厂(对照点),西宁,101.524,36.6867,Y
1484A,贺兰山马莲口(对照点),银川,105.9512,38.6016,Y
1485A,银湖巷(停运160703),银川,106.2682,38.4744,Y
1486A,宁安大街(停运160615),银川,106.217,38.4536,Y
1487A,宁化生活区(停运160703),银川,106.0715,38.4858,Y
1488A,贺兰山东路,银川,106.2328,38.4975,N
1489A,学院路,银川,106.1358,38.5036,N
1490A,监测站,乌鲁木齐,87.5801,43.8303,N
1491A,收费所,乌鲁木齐,87.6046,43.768,N
1492A,新疆农科院农场(对照点),乌鲁木齐,87.4754,43.9469,Y
1493A,铁路局,乌鲁木齐,87.5525,43.8711,N
1494A,三十一中学,乌鲁木齐,87.6432,43.831,N
1495A,七十四中学,乌鲁木齐,87.4171,43.8729,N
1496A,米东区环保局,乌鲁木齐,87.7216,44.1747,N
1508A,板塘,湘潭,112.9433,27.8614,N
1511A,市监测站,湘潭,112.9118,27.8403,N
1512A,江麓,湘潭,112.8937,27.8728,N
1513A,岳塘,湘潭,112.9227,27.8159,N
1514A,科大,湘潭,112.9074,27.9119,N
1515A,天台山庄,株洲,113.135,27.8244,N
1518A,株冶医院,株洲,113.095,27.8867,N
1519A,市四中,株洲,113.167,27.8667,N
1520A,火车站,株洲,113.143,27.8381,N
1524A,市监测站,株洲,113.13,27.8528,N
1552A,桐木岭(对照点),贵阳,106.805,26.3003,Y
1559A,大京风景区(对照点),株洲,113.251,27.8336,Y
1562A,昭山,湘潭,113.0048,27.9153,N
1564A,韶山(对照点),湘潭,112.4876,27.9164,Y
1585A,市环境监测站,包头,109.8756,40.6532,N
1586A,包百大楼(停用200107),包头,109.8104,40.6575,Y
1587A,包头八中,包头,109.9991,40.5842,N
1588A,青山宾馆,包头,109.8538,40.6821,N
1589A,惠龙物流,包头,109.8642,40.6288,N
1590A,东河鸿龙湾,包头,110.0377,40.5546,N
1591A,综合楼,鄂尔多斯,110.0023,39.8129,N
1592A,巴音孟克林场办事处,鄂尔多斯,109.9486,39.8261,N
1593A,康泽苑,鄂尔多斯,109.7736,39.5986,N
1594A,华泰汽车城,鄂尔多斯,109.8119,39.5989,N
1595A,奥林花园,鄂尔多斯,109.9734,39.7884,N
1596A,学府南路,营口,122.2414,40.6592,N
1597A,大庆路,营口,122.2703,40.7094,N
1598A,镜湖西路,营口,122.215,40.6511,N
1599A,西炮台,营口,122.167,40.6655,N
1600A,江湾东路,丹东,124.3303,40.0625,N
1601A,临江后街,丹东,124.4256,40.1503,N
1602A,元宝山,丹东,124.3933,40.1461,N
1603A,民主桥,丹东,124.3633,40.1092,N
1604A,开发区,盘锦,122.0303,41.1489,N
1605A,兴隆台,盘锦,122.0485,41.0883,N
1606A,新生街道,盘锦,121.8297,41.1028,N
1607A,龙港区,葫芦岛,120.9092,40.7136,N
1608A,化工街,葫芦岛,120.8392,40.7514,N
1609A,新区,葫芦岛,120.8341,40.7073,N
1610A,东城区,葫芦岛,120.8695,40.7677,N
1611A,涂山街,泉州,118.5819,24.9117,N
1612A,津头埔,泉州,118.5972,24.8978,N
1613A,万安,泉州,118.6663,24.9424,N
1614A,清源山(对照点),泉州,118.6117,24.9604,Y
1615A,植物油厂(停运170603),济南,117.6850,36.2050,Y
1616A,技术学院,济南,117.6795,36.229,N
1617A,日升国际,济南,117.7150,36.2081,Y
1618A,沂河小区,临沂,118.3429,35.0532,N
1619A,鲁南制药厂,临沂,118.295,35.0583,N
1620A,新光毛纺厂,临沂,118.2794,34.9976,N
1621A,河东保险公司,临沂,118.3956,35.0888,N
1622A,儿童乐园,德州,116.3032,37.4674,N
1623A,黑马集团,德州,116.2729,37.4504,N
1624A,监理站,德州,116.2991,37.4451,N
1625A,区政府,聊城,115.9848,36.4372,N
1626A,二轻机（已停运）,聊城,115.9968,36.4568,Y
1627A,党校(20190222停运),聊城,115.9835,36.4796,Y
1628A,市环保局,滨州,118.0062,37.3803,N
1629A,第二水厂,滨州,118.0018,37.3617,N
1630A,北中新校,滨州,117.9776,37.393,N
1631A,人民公园,淄博,118.0414,36.8103,N
1632A,东风化工厂,淄博,118.0253,36.8406,N
1633A,双山,淄博,117.8525,36.4847,N
1634A,气象站,淄博,117.9592,36.6331,N
1635A,莆田园,淄博,118.3092,36.8194,N
1636A,三金集团,淄博,117.8661,36.805,N
1637A,市中区政府,枣庄,117.558,34.8438,N
1638A,薛城环保局,枣庄,117.2852,34.7837,N
1639A,峄城区政府,枣庄,117.5852,34.7745,N
1640A,台儿庄区环保局,枣庄,117.7276,34.5578,N
1641A,山亭区环保局,枣庄,117.4518,35.0992,N
1642A,开发区,烟台,121.2514,37.5639,N
1643A,轴承厂,烟台,121.3719,37.5433,N
1644A,西郊化工站,烟台,121.3181,37.5436,N
1645A,莱山环保局,烟台,121.4478,37.4822,N
1646A,福山环保局,烟台,121.2611,37.4967,N
1647A,牟平环保局(停运170519),烟台,121.5953,37.3872,Y
1648A,仲裁委,潍坊,119.12,36.7019,N
1649A,刘家园,潍坊,119.0919,36.7306,Y
1650A,环保局,潍坊,119.1437,36.7023,N
1651A,共达公司,潍坊,119.1614,36.6572,Y
1652A,寒亭监测站,潍坊,119.1936,36.7729,N
1653A,火炬城,济宁,116.6251,35.4302,N
1654A,监测站(停运200103),济宁,116.5856,35.4144,Y
1655A,电化厂,济宁,116.5491,35.4042,N
1656A,监测站,泰安,117.1437,36.1937,N
1657A,人口学校,泰安,117.0885,36.2017,N
1658A,电力学校,泰安,117.1089,36.1758,N
1659A,监测站,日照,119.471,35.4209,N
1660A,市政府广场,日照,119.523,35.4216,N
1661A,港务局,日照,119.5587,35.4044,N
1662A,华夏技校,威海,122.1214,37.4236,N
1663A,山大分校,威海,122.0508,37.5236,N
1664A,市监测站,威海,122.1067,37.5072,N
1665A,西城阳光环保公司,东营,118.5019,37.4658,N
1666A,市环保局,东营,118.6614,37.4309,N
1667A,耿井村(停运20201117),东营,118.5857,37.4442,Y
1668A,广南水库(停运170301),东营,118.8192,37.3781,Y
1669A,市八中,韶关,113.5824,24.7733,N
1670A,碧湖山庄,韶关,113.5556,24.8082,N
1671A,园林处,韶关,113.5917,24.7972,N
1672A,韶关学院,韶关,113.6735,24.7791,N
1673A,曲江监测站,韶关,113.5971,24.6863,N
1674A,金平子站,汕头,116.6794,23.3667,N
1675A,龙湖子站,汕头,116.7244,23.3633,N
1676A,濠江子站,汕头,116.7258,23.2775,N
1677A,澄海子站,汕头,116.7519,23.4714,N
1678A,潮阳子站,汕头,116.6092,23.2539,N
1679A,潮南子站,汕头,116.4069,23.2533,N
1680A,湛江影剧院,湛江,110.3539,21.2706,N
1681A,市环境监测站,湛江,110.3928,21.2228,N
1682A,环保局宿舍,湛江,110.4019,21.1997,N
1683A,霞山游泳场,湛江,110.4111,21.2028,N
1684A,麻章区环保局,湛江,110.3316,21.2679,N
1685A,坡头区环保局,湛江,110.4558,21.2567,N
1686A,电白南海,茂名,111.0286,21.4688,N
1687A,茂石化七小,茂名,110.9294,21.6533,N
1688A,健康路,茂名,110.9107,21.6687,N
1689A,高岭,茂名,110.8592,21.6828,N
1690A,梅江月梅,梅州,116.1231,24.3284,N
1691A,梅县新城,梅州,116.0797,24.2719,N
1692A,环境监控中心,梅州,116.1248,24.2654,N
1693A,市环保局,汕尾,115.3653,22.775,N
1694A,市政府,汕尾,115.3706,22.7898,N
1695A,新城中学,汕尾,115.3622,22.7925,N
1696A,源西(对照点),河源,114.6778,23.7569,Y
1697A,东埔,河源,114.6944,23.7586,N
1698A,老城,河源,114.6892,23.7233,N
1699A,鸳鸯湖(对照点),阳江,111.9797,21.8593,Y
1700A,南恩路,阳江,111.9508,21.8536,N
1701A,马南垌,阳江,111.9491,21.8658,N
1702A,环保大楼(对照点),清远,113.0426,23.691,Y
1703A,凤城街办,清远,113.0208,23.7106,N
1704A,高新区,清远,113.0622,23.6272,N
1705A,西园路(对照点),潮州,116.6367,23.6719,Y
1706A,档案局,潮州,116.6447,23.6706,N
1707A,市政公司,潮州,116.6175,23.6531,N
1708A,新兴,揭阳,116.3701,23.5345,N
1709A,西马,揭阳,116.3264,23.5443,N
1710A,东兴,揭阳,116.3611,23.5626,N
1711A,渔湖,揭阳,116.4151,23.5294,N
1712A,新市府(对照点),云浮,112.0392,22.9169,Y
1713A,市监测站,云浮,112.0369,22.9394,N
1714A,牧羊,云浮,112.0539,22.9539,N
1715A,东风水库,玉溪,102.575,24.3711,N
1716A,市监测站,玉溪,102.5433,24.3603,N
1717A,大营街镇,玉溪,102.4964,24.3411,N
1718A,气象局,菏泽,115.4208,35.2464,N
1719A,市政协,菏泽,115.4747,35.2375,N
1720A,菏泽学院,菏泽,115.455,35.27,N
1721A,果树场(对照点),大同,113.3819,40.1097,Y
1722A,红旗广场(停运160601),大同,113.2858,40.0958,Y
1723A,云冈宾馆,大同,113.2994,40.0758,N
1724A,大同大学,大同,113.3444,40.0917,N
1725A,安家小村,大同,113.2661,40.1269,N
1726A,教育学院,大同,113.2711,40.0844,N
1727A,清华站,长治,113.1147,36.1547,N
1728A,监测站,长治,113.1031,36.1989,N
1729A,澳瑞特,长治,113.1466,36.1961,Y
1730A,审计局,长治,113.0886,36.2125,N
1731A,长治八中,长治,113.0844,36.1856,N
1732A,市监测站(停运161122),临汾,111.5125,36.0978,Y
1733A,临钢医院,临汾,111.5531,36.0783,N
1734A,技工学校,临汾,111.5028,36.0714,N
1735A,工商学校,临汾,111.5169,36.0822,N
1736A,市委,临汾,111.5018,36.0855,N
1737A,尧庙镇(停运191230),临汾,111.4917,36.0417,Y
1738A,市中心,阳泉,113.5758,37.8572,N
1739A,赛鱼,阳泉,113.4894,37.8731,N
1740A,南庄,阳泉,113.5819,37.8486,N
1741A,白羊墅,阳泉,113.6292,37.8531,N
1742A,平坦,阳泉,113.5614,37.8703,N
1743A,大阳泉,阳泉,113.5158,37.8392,N
1744A,松山一中,赤峰,118.9233,42.2816,N
1745A,哈达街,赤峰,118.9576,42.2728,N
1746A,天义路,赤峰,118.8788,42.2554,N
1747A,松山路,赤峰,119.2719,42.0317,N
1748A,深沟寺,鞍山,123.044,41.1196,N
1749A,太阳城,鞍山,123.011,41.0931,N
1750A,太平,鞍山,123.0485,41.1442,N
1751A,铁西三道街,鞍山,122.9642,41.0971,N
1752A,铁西工业园区,鞍山,122.9341,41.0833,N
1753A,明达新区,鞍山,123.022,41.0821,N
1754A,千山(对照点),鞍山,123.1289,41.0228,Y
1755A,望花区,抚顺,123.7977,41.8491,N
1756A,顺城区,抚顺,123.9161,41.8822,N
1757A,东洲区,抚顺,124.0436,41.8611,N
1758A,新抚区,抚顺,123.9247,41.8642,N
1759A,大伙房水库,抚顺,124.0972,41.8961,N
1760A,沈抚新城,抚顺,123.7086,41.8391,N
1761A,大峪,本溪,123.8275,41.3064,N
1762A,溪湖,本溪,123.7567,41.3325,N
1763A,彩屯,本溪,123.7169,41.3094,N
1764A,东明,本溪,123.7669,41.2864,N
1765A,新立屯,本溪,123.7992,41.2664,N
1766A,威宁,本溪,123.8142,41.3472,N
1767A,南山,锦州,121.1115,41.0879,N
1768A,开发区,锦州,121.0533,40.8434,N
1769A,百股街道,锦州,121.1836,41.1119,N
1770A,天安街道,锦州,121.1178,41.1222,N
1771A,北湖公园,锦州,121.1303,41.1386,N
1772A,哈达湾,吉林,126.54,43.8622,N
1773A,东局子,吉林,126.5844,43.8358,N
1774A,电力学院,吉林,126.5052,43.8245,N
1775A,江北,吉林,126.6133,43.8972,N
1776A,江南公园,吉林,126.555,43.8306,N
1778A,丰满(对照点),吉林,126.7061,43.7133,Y
1779A,安居小区,齐齐哈尔,123.9305,47.3636,N
1780A,中心广场,齐齐哈尔,123.9488,47.3386,N
1781A,农牧车辆厂,齐齐哈尔,123.9483,47.3227,N
1782A,富区环保局(停运191231),齐齐哈尔,123.6261,47.2030,Y
1783A,市环境监测站,齐齐哈尔,123.945,47.2988,N
1784A,环保大楼,牡丹江,129.61,44.561,N
1785A,文化广场,牡丹江,129.6115,44.5782,N
1786A,第一医院,牡丹江,129.5904,44.5963,N
1787A,机车工厂,牡丹江,129.6364,44.6075,N
1788A,第一中学,牡丹江,129.6386,44.5462,N
1789A,大同区,大庆,124.81117,46.03138,N
1790A,龙凤区,大庆,125.129,46.533,N
1791A,红岗区,大庆,124.902,46.408,N
1792A,萨尔图区,大庆,125.153,46.586,N
1793A,让胡路区,大庆,124.9042,46.6215,N
1794A,监测站,芜湖,118.3606,31.3519,N
1795A,科创中心,芜湖,118.3714,31.4134,N
1796A,四水厂,芜湖,118.3673,31.3131,N
1797A,济民医院(对照点),芜湖,118.4022,31.3839,Y
1798A,湖东路四小,马鞍山,118.5092,31.6837,N
1799A,开发区,马鞍山,118.5024,31.6449,N
1800A,慈湖,马鞍山,118.5228,31.7231,N
1801A,马钢动力厂,马鞍山,118.48,31.6928,N
1802A,濮塘(对照点),马鞍山,118.6245,31.7241,Y
1803A,十里,九江,115.9872,29.6815,N
1804A,茅山头,九江,115.9584,29.7046,N
1805A,西园,九江,115.9877,29.7295,N
1806A,五七二七厂,九江,116.0172,29.6547,N
1807A,水科所,九江,116.0628,29.6926,N
1808A,综合工业园,九江,115.9114,29.6038,N
1809A,石化总厂,九江,116.0721,29.7535,N
1810A,庐山气象台(对照点),九江,115.9773,29.5698,Y
1811A,中信二小,洛阳,112.3628,34.6692,N
1812A,市委党校,洛阳,112.3931,34.6516,N
1813A,市监测站,洛阳,112.4333,34.6700,N
1814A,豫西宾馆,洛阳,112.4657,34.6871,N
1815A,河南林校,洛阳,112.494,34.6886,N
1816A,开发区管委会,洛阳,112.3844,34.623,N
1817A,市委新办公区,洛阳,112.4267,34.6258,N
1818A,棉研所(对照点),安阳,114.4839,36.0621,Y
1819A,红庙街,安阳,114.3551,36.1017,N
1820A,银杏小区,安阳,114.361,36.0681,N
1821A,环保局(停运171207),安阳,114.3931,36.0883,Y
1822A,铁佛寺(停运200115),安阳,114.2860,36.1100,Y
1823A,河大一附院(停运180109),开封,114.3406,34.8022,Y
1824A,肿瘤医院,开封,114.3389,34.7781,N
1825A,妇幼保健院(20190322停运),开封,114.3733,34.7975,Y
1826A,世纪星幼儿园,开封,114.2885,34.7965,N
1827A,市监测站,焦作,113.261,35.235,N
1828A,市环保局,焦作,113.2269,35.2127,N
1829A,高新区政府,焦作,113.2467,35.176,N
1830A,影视城(对照点),焦作,113.1987,35.2703,Y
1831A,高压开关厂(20190304停运),平顶山,113.3064,33.7214,Y
1832A,新华旅馆,平顶山,113.3257,33.742,N
1833A,规划设计院,平顶山,113.2919,33.737,N
1834A,平顶山工学院,平顶山,113.182,33.774,N
1835A,市政府,三门峡,111.1922,34.7752,N
1836A,开发区,三门峡,111.1587,34.7942,N
1837A,二  印,三门峡,111.1858,34.7917,N
1838A,风景区(对照点),三门峡,111.143,34.7955,Y
1839A,四零三,宜昌,111.3009,30.7157,N
1840A,白龙岗,宜昌,111.2992,30.6981,N
1841A,伍家岗,宜昌,111.3549,30.6465,N
1842A,点军区,宜昌,111.2628,30.6961,N
1843A,夷陵区,宜昌,111.3275,30.7819,N
1844A,市图书馆,荆州,112.2494,30.3197,N
1845A,市委党校,荆州,112.2008,30.3544,N
1846A,科融环保,荆州,112.2887,30.3055,Y
1847A,南湖风景区,岳阳,113.1094,29.3578,N
1848A,城陵矶,岳阳,113.1493,29.4251,N
1849A,开发区,岳阳,113.1497,29.3575,N
1850A,云溪区,岳阳,113.2621,29.4758,N
1851A,君山区,岳阳,112.9943,29.4402,N
1852A,金凤水库(对照点),岳阳,113.2117,29.355,Y
1853A,市监测站,常德,111.7044,29.0244,Y
1854A,市二中,常德,111.6975,28.9703,N
1855A,鼎城区环保局,常德,111.6753,29.0239,Y
1856A,市技术监督局,常德,111.6794,29.0381,Y
1857A,白鹤山(对照点),常德,111.7158,29.1456,Y
1858A,永定新区,张家界,110.5319,29.1217,N
1859A,电业局,张家界,110.4697,29.1242,N
1860A,未央路,张家界,110.5594,29.3547,N
1861A,袁家界(对照点),张家界,110.4417,29.315,Y
1862A,电子科大尧山校区(对照点),桂林,110.4144,25.3167,Y
1863A,监测站,桂林,110.2819,25.2697,N
1864A,龙隐路小学,桂林,110.3089,25.2708,N
1865A,八中,桂林,110.2869,25.2178,N
1866A,牛尾岭水库(对照点),北海,109.2262,21.588,Y
1867A,海滩公园,北海,109.1436,21.4086,N
1868A,新市环保局,北海,109.0981,21.4661,N
1869A,北海工业园,北海,109.1778,21.5233,N
1870A,柳东小学,柳州,109.4856,24.3895,N
1871A,环保监测站,柳州,109.4157,24.3277,N
1872A,河西水厂,柳州,109.389,24.341,N
1873A,市四中,柳州,109.4311,24.2921,N
1874A,市九中,柳州,109.4006,24.3631,N
1875A,古亭山,柳州,109.4958,24.3134,N
1876A,河东子站,三亚,109.5078,18.2489,N
1877A,河西子站,三亚,109.4964,18.2681,N
1878A,富乐山,绵阳,104.7778,31.4741,N
1879A,市人大,绵阳,104.7563,31.4535,N
1880A,高新区自来水公司,绵阳,104.6697,31.4668,N
1881A,三水厂,绵阳,104.7287,31.5075,N
1882A,石马中学(对照点),宜宾,104.563,28.793,Y
1883A,市委,宜宾,104.6201,28.7728,N
1884A,宜宾四中,宜宾,104.6055,28.793,N
1885A,市政府,宜宾,104.639,28.7562,N
1886A,黄金嘴,宜宾,104.5742,28.7199,N
1887A,沙坪中学(停运200627),宜宾,104.6789,28.7989,Y
1888A,弄弄坪,攀枝花,101.6891,26.571,N
1889A,河门口,攀枝花,101.5769,26.5928,N
1890A,炳草岗,攀枝花,101.7169,26.585,N
1891A,仁和,攀枝花,101.7369,26.5008,N
1893A,九狮山(对照点),泸州,105.4324,28.9634,Y
1894A,小市上码头,泸州,105.4427,28.9063,N
1895A,兰田宪桥,泸州,105.4241,28.8573,N
1896A,市环监站,泸州,105.4379,28.8833,N
1897A,大塘山(对照点),自贡,104.7547,29.3628,Y
1898A,盐马路,自贡,104.7214,29.3586,N
1899A,檀木林街,自贡,104.7747,29.3564,N
1900A,春华路,自贡,104.7692,29.3411,N
1901A,东山公园,德阳,104.4239,31.1208,N
1902A,西小区,德阳,104.3826,31.1317,N
1903A,市检察院,德阳,104.4053,31.1167,N
1904A,耐火材料厂,德阳,104.3553,31.1091,N
1905A,西山风景区(对照点),南充,106.056,30.8064,Y
1906A,南充市委,南充,106.0789,30.8023,N
1907A,南充炼油厂,南充,106.1031,30.8217,N
1908A,高坪区监测站,南充,106.1064,30.7856,N
1909A,嘉陵区环保局,南充,106.0642,30.7636,N
1910A,市环境监测站,南充,106.1087,30.8388,N
1911A,丁字口,遵义,106.9222,27.6869,N
1912A,凤凰山,遵义,106.9242,27.7019,N
1913A,忠庄,遵义,106.8906,27.6486,N
1914A,舟水桥,遵义,106.9231,27.6506,N
1915A,干田坝,遵义,106.9178,27.72,N
1916A,环境监测站,曲靖,103.7897,25.5035,N
1917A,烟厂办公区,曲靖,103.8,25.5364,N
1918A,气象站(对照点),咸阳,108.7197,34.3956,Y
1919A,实验中学,咸阳,108.673,34.3155,N
1920A,师范学院,咸阳,108.7233,34.3617,N
1921A,中医学院,咸阳,108.7369,34.3164,Y
1922A,党校(对照点),铜川,109.0656,35.0994,Y
1923A,王益区政府,铜川,109.0697,35.0697,N
1924A,新区管委会,铜川,108.9344,34.9058,N
1925A,新区兰芝公司,铜川,108.9589,34.8731,N
1926A,枣园(对照点),延安,109.4131,36.6275,Y
1927A,延大医附院,延安,109.4761,36.6028,N
1928A,市监测站,延安,109.4824,36.5767,N
1929A,百米大道,延安,109.5056,36.6106,N
1930A,庙沟村(对照点),宝鸡,107.185,34.3063,Y
1931A,竹园沟,宝鸡,107.0708,34.3017,N
1932A,三陆医院,宝鸡,107.1906,34.3672,N
1933A,监测站,宝鸡,107.1431,34.3547,N
1934A,技工学校,宝鸡,107.1186,34.3739,N
1935A,陈仓区环保局家属楼,宝鸡,107.3906,34.3528,N
1936A,文理学院,宝鸡,107.2058,34.3497,N
1937A,三迪小学,宝鸡,107.2386,34.3622,N
1938A,农科所(对照点),渭南,109.5293,34.5101,Y
1939A,日报社,渭南,109.4974,34.4877,N
1940A,体育馆,渭南,109.4636,34.493,N
1941A,高新一小,渭南,109.4259,34.5023,N
1942A,市科委(停运180727),金昌,102.1878,38.5247,Y
1943A,新川苑,金昌,102.1725,38.5339,N
1944A,天庆家园,金昌,102.1692,38.5167,N
1945A,气象局,嘉峪关,98.2908,39.7711,N
1947A,沙湖旅游区(对照点),石嘴山,106.3394,38.817,Y
1948A,大武口朝阳西街,石嘴山,106.3668,39.0145,N
1949A,惠农南大街,石嘴山,106.7704,39.2282,N
1950A,红果子镇惠新街,石嘴山,106.7099,39.1325,N
1951A,长征新村,克拉玛依,84.895,45.6094,N
1952A,南林小区,克拉玛依,84.8988,45.5893,N
1953A,白碱滩区,克拉玛依,85.1186,45.6886,N
1954A,独山子区,克拉玛依,84.905,44.3396,N
1955A,乌尔禾区商贸楼,克拉玛依,85.6979,46.098,N
1956A,孔雀公园,巴音郭楞州,86.1472,41.7538,N
1957A,棉纺厂,巴音郭楞州,86.1972,41.7166,N
1958A,经济开发区,巴音郭楞州,86.2357,41.7173,N
1959A,监测站,寿光,118.746,36.881,N
1960A,世纪学校,寿光,118.780,36.864,N
1961A,东山小学,济南,117.532,36.6868,N
1962A,明水开发区,章丘,117.541,36.710,N
1963A,环保局子站,即墨,120.610,36.440,N
1964A,开发区子站,即墨,120.470,36.390,N
1965A,JN子站,胶南,120.005,35.878,N
1966A,黄岛区4号,青岛,120.0405,35.8735,N
1967A,胶州环保局,胶州,120.008,36.283,N
1968A,胶州一中,胶州,120.014,36.253,N
1969A,环保局子站,莱西,120.537,36.865,N
1970A,人民广场子站,莱西,120.515,36.885,N
1971A,1号,平度,119.952,36.792,N
1972A,2号,平度,119.976,36.799,N
1973A,蓬莱环保局,蓬莱,120.747,37.825,N
1974A,蓬莱博物馆,蓬莱,120.773,37.809,N
1975A,招远环保局,招远,120.399,37.374,N
1976A,招远教育局,招远,120.394,37.364,N
1977A,莱州环保局,莱州,119.941,37.177,N
1978A,莱州外经委,莱州,119.959,37.180,N
1979A,荣成市环保局办公楼,荣成,122.471,37.154,N
1980A,山东成山轮胎公司,荣成,122.410,37.161,N
1981A,文登市环保局,文登,122.038,37.197,N
1982A,文登开发区,威海,122.0693,37.2174,N
1983A,乳山市环保局,乳山,121.531,36.913,N
1984A,乳山市气象局,乳山,121.544,36.907,N
1985A,吴江市环保局,吴江,120.636,31.155,N
1986A,教师进修学校,吴江,120.635,31.170,N
1987A,吴江开发区,吴江,120.658,31.172,N
1988A,昆山实验小学,昆山,120.953,31.388,N
1989A,震川中学,昆山,120.999,31.381,N
1990A,海虞子站,常熟,120.758,31.670,N
1991A,兴福子站,常熟,120.721,31.671,N
1992A,菱塘子站,常熟,120.734,31.656,N
1993A,张家港市监测站,张家港,120.526,31.874,N
1994A,城北小学,张家港,120.550,31.882,N
1995A,太仓市监测站,太仓,121.115,31.453,N
1996A,科教新城实小,太仓,121.140,31.422,N
1997A,消防指挥中心,句容,119.146,31.955,N
1998A,房家坝,句容,119.180,31.955,N
1999A,虹桥邮政,江阴,120.268,31.920,N
2000A,五星公园,江阴,120.237,31.909,N
2001A,第二实验小学,江阴,120.302,31.920,N
2002A,宜兴市环保局,宜兴,119.818,31.354,N
2003A,宜园,宜兴,119.794,31.371,N
2004A,金坛市环境监测站,金坛,119.579,31.751,N
2005A,金坛市自来水公司,金坛,119.579,31.737,N
2006A,溧阳市东门子站,溧阳,119.460,31.400,N
2007A,燕山子站,溧阳,119.438,31.317,N
2008A,海门市监测站,海门,121.173,31.896,N
2009A,社会福利院,海门,121.1518,31.89708,N
2010A,市政府,临安,119.7183,30.2366,N
2011A,四中,临安,119.6942,30.2311,N
2012A,监测站,富阳,119.954,30.054,N
2013A,富春二小,富阳,119.946,30.049,N
2014A,江东,义乌,120.091,29.305,N
2015A,北苑,义乌,120.040,29.334,N
2016A,图书馆,诸暨,120.251,29.719,N
2017A,富林印务,诸暨,120.209,29.732,N
2018A,抱龙山庄,瓦房店,121.989,39.625,N
2019A,东山公园,瓦房店,122.011,39.617,N
2031A,云田中学,株洲,113.1817,27.9958,N
2054A,平桥分局,信阳,114.1099,32.1059,N
2064A,南湾水厂,信阳,113.9956,32.1271,N
2065A,市酿酒公司,信阳,114.0775,32.1195,N
2066A,审计局,信阳,114.0609,32.1399,N
2067A,市环境监测站,周口,114.6613,33.6128,N
2068A,周口师范,周口,114.6758,33.6347,N
2069A,市运管处,周口,114.6546,33.5979,N
2070A,川汇区环保局,周口,114.6369,33.6406,N
2073A,蓝田(停运160601),漳州,117.7206,24.5086,Y
2074A,漳州三中(20190503停运),漳州,117.6569,24.5157,Y
2075A,九湖(对照点),漳州,117.6336,24.4674,Y
2160A,自来水公司,晋城,112.85,35.5051,N
2161A,白云商贸,晋城,112.8318,35.4936,N
2162A,市环保局,晋城,112.8508,35.4887,N
2163A,技术学院,晋城,112.8676,35.4897,N
2164A,泽州一中,晋城,112.8271,35.4828,N
2165A,白马寺 (对照点),晋城,112.8453,35.546,Y
2166A,平朔,朔州,112.4397,39.3522,N
2167A,朔唯,朔州,112.4575,39.3617,N
2168A,区政府,朔州,112.4258,39.3197,N
2169A,市环保局,朔州,112.4072,39.3278,N
2170A,市二中,朔州,112.4272,39.3681,N
2171A,锦纶小区,晋中,112.7532,37.6945,N
2172A,榆次液压件厂,晋中,,,N
2173A,南都小区,晋中,112.7249,37.7067,N
2174A,榆次区政府,晋中,112.6991,37.6982,N
2175A,运城中学,运城,110.9956,35.0147,N
2176A,禹都开发区,运城,111.0233,35.0611,N
2177A,运城学院（已停运）,运城,111.0397,35.0394,Y
2178A,地区技校,运城,110.9686,35.0303,N
2179A,空港新区,运城,111.0414,35.1147,N
2180A,机引(20190313停运),忻州,112.7356,38.4186,Y
2181A,开发区,忻州,112.7383,38.4519,N
2182A,会展中心,忻州,112.7003,38.4928,N
2183A,环保局,吕梁,111.1406,37.5211,N
2184A,豆制品厂,吕梁,,,N
2185A,自来水公司,吕梁,111.1297,37.5136,N
2186A,聚英学校,乌海,106.8288,39.6778,N
2187A,市林业局,乌海,106.8174,39.6973,N
2188A,中海勃湾学校,乌海,106.7907,39.6667,N
2189A,通辽宾馆,通辽,122.2603,43.6267,Y
2190A,胶建铝业,通辽,122.3039,43.6156,Y
2191A,艺术职业学校,通辽,122.2532,43.6801,N
2192A,区环保局,呼伦贝尔,119.7594,49.2261,N
2193A,市艺校,呼伦贝尔,119.7283,49.2014,Y
2194A,秋林养殖基地(对照点),巴彦淖尔,107.5936,40.916,Y
2195A,附二中,巴彦淖尔,107.4212,40.761,N
2196A,市环保大楼,巴彦淖尔,107.37,40.7372,N
2197A,集宁新区,乌兰察布,113.1306,40.9923,N
2198A,集宁旧区西,乌兰察布,113.0974,41.038,N
2199A,盟监测站(停运170221),兴安盟,122.062,46.0872,Y
2200A,胜华新制药厂,兴安盟,122.0392,46.0656,N
2201A,科右前旗环保局,兴安盟,121.9504,46.0741,N
2202A,市环保监测站,锡林郭勒盟,116.1042,43.9317,N
2203A,市政府,锡林郭勒盟,116.0781,43.9311,N
2204A,西城区西花园(对照点),阿拉善盟,105.6467,38.8363,Y
2205A,蒙二幼,阿拉善盟,105.6985,38.8411,N
2206A,环保局新楼,阿拉善盟,105.724,38.8516,N
2207A,工业园区,阜新,121.6094,41.998,N
2208A,长青街,阜新,121.6697,42.0279,N
2209A,农业园区,阜新,121.6673,42.0705,N
2210A,东苑,阜新,121.6717,42.0224,N
2211A,玉龙新城,阜新,121.6506,42.0498,N
2212A,宏伟区,辽阳,123.2,41.1953,N
2213A,新华园,辽阳,123.1683,41.2495,N
2214A,滨河路,辽阳,123.2354,41.2639,N
2215A,铁西工业园,辽阳,123.149,41.2991,N
2216A,汇工街西,铁岭,123.8139,42.3022,N
2217A,水上乐园,铁岭,123.8649,42.2923,N
2218A,银州路东段,铁岭,123.8486,42.2867,N
2219A,金沙江路北,铁岭,123.7153,42.2217,N
2220A,西梁,朝阳,120.4318,41.5881,N
2221A,河畔小区,朝阳,120.4521,41.5646,N
2222A,八里堡,朝阳,120.4176,41.5648,N
2223A,农业园区,朝阳,120.3806,41.5969,N
2224A,监测站(停运200414),四平,124.3419,43.1747,Y
2225A,一商场,四平,124.4002,43.1713,N
2226A,境园,四平,124.388,43.193,N
2227A,环保局,辽源,125.1358,42.8845,N
2228A,污水处理厂,辽源,125.1567,42.8953,Y
2229A,光明,通化,125.9358,41.7173,N
2230A,铁路,通化,125.9446,41.7325,N
2231A,喜丰,白山,126.4219,41.9171,N
2232A,环保局,白山,126.4077,41.9419,N
2233A,江南,松原,124.8006,45.1214,N
2234A,江北,松原,124.7965,45.1722,N
2235A,洮北区环保局,白城,122.7911,45.6077,N
2236A,市环保局,白城,122.8738,45.5725,N
2237A,妇幼医院,延边朝鲜族自治州,129.47,42.8883,N
2238A,延边医院,延边朝鲜族自治州,129.5055,42.9108,N
2239A,朝阳川镇医院,延边朝鲜族自治州,129.3964,42.8881,N
2240A,环保局,鸡西,130.9762,45.3001,N
2241A,自来水公司,鸡西,130.9817,45.305,Y
2242A,白酒厂,鸡西,131.0103,45.2948,Y
2243A,第一中学,鸡西,130.9429,45.3039,N
2244A,哈啤分公司,鹤岗,130.2537,47.3416,N
2245A,斯达机电,鹤岗,130.2684,47.3086,N
2246A,东山纸板厂,鹤岗,130.3114,47.3388,N
2247A,五号水库(对照点),鹤岗,130.1097,47.3382,Y
2248A,双合村,双鸭山,131.1511,46.6937,N
2249A,南小市,双鸭山,131.1652,46.6191,N
2250A,环保局,双鸭山,131.1524,46.6554,N
2251A,苗圃(对照点),双鸭山,131.12,46.5656,Y
2252A,环保局,伊春,128.5159,47.4311,N
2253A,电力嘉园,伊春,128.9102,47.7412,N
2254A,汤旺河国家公园(对照点),伊春,129.5029,48.471,Y
2255A,佳纺,佳木斯,130.2751,46.8028,N
2256A,发电厂,佳木斯,130.3995,46.8307,N
2257A,环保局,佳木斯,130.3258,46.7975,N
2258A,十一中,佳木斯,130.3648,46.8032,N
2259A,四丰(对照点),佳木斯,130.3794,46.7588,Y
2260A,环保局(停运200627),七台河,131.0032,45.7677,Y
2261A,新建(停运200107),七台河,130.8625,45.8194,Y
2262A,新一中(对照点),七台河,131.0518,45.8751,Y
2263A,交通局,黑河,127.4833,50.2524,N
2264A,环保局,黑河,127.5144,50.2341,N
2265A,大黑河岛(对照点),黑河,127.5291,50.2472,Y
2266A,人和东街,绥化,126.9785,46.6365,N
2267A,党政办公中心,绥化,126.964,46.6528,N
2268A,环保局(停运191231),大兴安岭地区,124.1186,50.4269,Y
2269A,科技局,大兴安岭地区,124.1069,50.4097,N
2270A,工人疗养院,蚌埠,117.396,32.939,N
2271A,百货大楼,蚌埠,117.3605,32.9427,N
2272A,二水厂(停运200430),蚌埠,117.3086,32.935,Y
2273A,蚌埠学院,蚌埠,117.4185,32.8911,N
2274A,淮上区政府,蚌埠,117.3533,32.9673,N
2275A,高新区,蚌埠,117.3145,32.8977,N
2276A,大通区政府（已停运）,淮南,117.0417,32.6611,Y
2277A,潘集区政府,淮南,116.8305,32.7727,N
2278A,师范学院,淮南,117.0067,32.6524,N
2279A,谢家集区政府,淮南,116.8569,32.5951,N
2280A,八公山区政府,淮南,116.8281,32.633,N
2281A,焦岗湖风景区管理处(对照点),淮南,116.6325,32.6201,Y
2282A,监测站,淮北,116.8004,33.975,N
2283A,烈山区政府,淮北,116.8091,33.9007,N
2284A,职业技术学院,淮北,116.7856,33.9477,N
2285A,市第四中学,铜陵,117.8177,30.9412,N
2286A,市公路局,铜陵,117.8059,30.9273,N
2287A,市新民污水厂,铜陵,117.7807,30.9413,N
2288A,市第九中学,铜陵,117.7439,30.8792,N
2289A,车站新区,铜陵,117.846,30.9413,N
2290A,市职教基地,铜陵,117.8483,30.97,N
2291A,环科院,安庆,117.0809,30.5177,N
2292A,马山宾馆,安庆,117.0331,30.5119,N
2293A,联富花园(停运180816),安庆,117.0486,30.5489,Y
2294A,安庆大学,安庆,116.9896,30.6145,N
2295A,延安路89号,黄山,118.2903,29.6963,N
2296A,黄山东路89号,黄山,118.327,29.7178,N
2297A,黄山区政府5号楼,黄山,118.1371,30.2756,N
2298A,老年大学,滁州,118.3093,32.3153,N
2299A,人大宾馆,滁州,118.3244,32.2786,N
2300A,监测站(20190308停运),滁州,118.3158,32.3061,Y
2301A,市监测站,阜阳,115.8277,32.8929,N
2302A,市委党校,阜阳,,,N
2303A,开发区,阜阳,115.8554,32.8605,N
2304A,监测楼,宿州,116.9765,33.6481,Y
2305A,一中(停运200114),宿州,116.9677,33.6284,Y
2306A,火车站,宿州,116.989,33.6306,N
2307A,监测大楼,六安,116.5079,31.737,N
2308A,皖西学院,六安,116.4738,31.7643,N
2309A,朝阳厂,六安,116.4996,31.7905,N
2310A,开发区,六安,116.5567,31.7886,N
2311A,污水处理厂,亳州,115.8072,33.8399,N
2312A,三国揽胜宫,亳州,115.7789,33.8518,N
2313A,环保大楼(停运160506),池州,117.4808,30.6414,Y
2314A,池州学院,池州,117.47,30.6618,N
2315A,平天湖(对照点),池州,117.4974,30.6539,Y
2316A,鳌峰子站,宣城,118.7581,30.9454,N
2317A,敬亭山子站,宣城,118.7385,30.9743,N
2318A,开发区子站,宣城,118.7173,30.9427,N
2319A,荔城区仓后路,莆田,119.0141,25.4325,N
2320A,莆田市监测站,莆田,119.0015,25.4553,N
2321A,涵江区六中,莆田,119.1119,25.4561,N
2322A,秀屿区政府,莆田,119.1013,25.3215,N
2323A,东圳水库(对照点),莆田,118.981,25.4792,Y
2324A,三钢,三明,117.6211,26.2625,N
2325A,三明二中,三明,117.635,26.2714,N
2326A,三元区政府,三明,117.6028,26.2378,N
2327A,洋溪(对照点),三明,117.7275,26.3108,Y
2331A,茫荡山(对照点),南平,118.0966,26.6761,Y
2332A,南平市监测站,南平,118.1681,26.6369,N
2333A,南平铝业有限公司,南平,118.1825,26.6489,N
2334A,南平七中,南平,118.1756,26.6272,N
2335A,龙岩师专(对照点),龙岩,117.0189,25.1181,Y
2336A,龙岩市监测站,龙岩,117.0217,25.1033,N
2337A,闽西职业技术学院,龙岩,117.0258,25.0661,N
2338A,龙岩学院,龙岩,117.0196,25.0306,N
2339A,金涵水库(对照点),宁德,119.5001,26.6946,Y
2340A,蕉城区农机局(20190319停运),宁德,119.5202,26.6607,Y
2341A,宁德市监测站,宁德,119.5388,26.6612,N
2342A,王港中学(对照点),景德镇,117.3102,29.3867,Y
2343A,老干部活动中心,景德镇,117.2117,29.2933,N
2344A,兽医站,景德镇,117.1894,29.2789,N
2345A,台达陶瓷,景德镇,117.1547,29.2617,N
2346A,陶研所,景德镇,117.2461,29.2956,N
2347A,武功山(对照点),萍乡,114.0997,27.5002,Y
2348A,中医院,萍乡,113.8385,27.6434,N
2349A,市政府车库,萍乡,113.8493,27.6253,N
2350A,市环保局,萍乡,113.8676,27.6435,N
2351A,安源区政府,萍乡,113.866,27.6198,N
2352A,北岗(对照点),新余,115.0861,27.9317,Y
2353A,飞宇,新余,114.9886,27.8431,N
2354A,第二水厂,新余,114.9231,27.8246,N
2355A,市气象局,新余,114.9308,27.8036,N
2356A,新钢氧气厂,新余,114.9119,27.8042,Y
2357A,龙虎山(对照点),鹰潭,116.9822,28.1136,Y
2358A,新监测站,鹰潭,117.0564,28.2642,N
2359A,财苑宾馆,鹰潭,117.0311,28.2475,N
2360A,体育馆,鹰潭,117.0222,28.2264,N
2361A,三川水表,鹰潭,117.0017,28.2131,N
2362A,通天岩(对照点),赣州,114.9017,25.9149,Y
2363A,地委,赣州,114.9367,25.8664,N
2364A,气象台,赣州,114.9461,25.8481,N
2365A,市图书馆,赣州,114.9322,25.8333,N
2366A,华坚鞋城,赣州,114.8905,25.8471,N
2367A,红声器材厂,吉安,114.9754,27.0803,N
2368A,市森林工业局,吉安,114.9658,27.0999,N
2369A,市环境监测站,吉安,114.99,27.1312,N
2370A,青原区法院,吉安,115.0093,27.0968,N
2371A,槟榔水业(对照点),宜春,114.3408,27.8064,Y
2372A,市中国银行,宜春,114.3806,27.8014,N
2373A,市石油公司,宜春,114.3956,27.7844,N
2374A,市气象局,宜春,114.3703,27.7914,N
2375A,市广电局,宜春,114.4013,27.8074,N
2376A,桐源党溪(对照点),抚州,116.2127,28.0814,Y
2377A,市站,抚州,116.3544,27.9831,N
2378A,血防站,抚州,116.3565,27.963,N
2379A,采茶剧团,抚州,116.3564,28.0007,N
2380A,医学分院,抚州,116.385,27.9647,N
2381A,百草园(对照点),上饶,118.005,28.4572,Y
2382A,市监测站,上饶,117.9756,28.4436,N
2383A,凤凰光学,上饶,117.9519,28.4628,N
2384A,开发区管委会(停运200112),上饶,117.9033,28.4303,Y
2385A,市监测站,鹤壁,114.17,35.9019,N
2386A,市交警支队,鹤壁,114.2956,35.7511,N
2387A,迎宾馆,鹤壁,114.2878,35.7306,N
2388A,科技学院,新乡,113.926,35.279,N
2389A,环保西院,新乡,113.836,35.311,N
2390A,开发区,新乡,113.884,35.272,N
2391A,环保东院,新乡,113.883,35.303,N
2392A,环保局,濮阳,115.0312,35.7636,N
2393A,紭天威,濮阳,114.9906,35.767,Y
2394A,油田运输公司,濮阳,115.0574,35.7609,N
2395A,油田物探公司,濮阳,115.0866,35.7754,N
2396A,监测站,许昌,113.8276,34.0159,N
2397A,环保局,许昌,113.8208,34.0314,N
2398A,开发区,许昌,113.7906,33.9953,N
2399A,三五一五工厂,漯河,114.051,33.5699,N
2400A,漯河大学,漯河,114.0055,33.5698,N
2401A,市水利局,漯河,114.0138,33.5828,N
2402A,市广电局,漯河,114.0261,33.5698,N
2403A,环保局,南阳,112.5192,32.9917,N
2404A,瓦房庄,南阳,112.5339,33.0086,N
2405A,汉画馆,南阳,112.5003,32.9735,N
2406A,气象站,南阳,112.5779,33.0144,N
2407A,理工学院,南阳,112.548,32.9692,N
2408A,环境监测站,商丘,115.6702,34.4285,N
2409A,粮食局,商丘,115.6458,34.4045,N
2410A,睢阳区环保局,商丘,115.6293,34.3948,N
2411A,第三人民医院(20190220停运),商丘,115.6578,34.402,Y
2420A,市一纸厂,驻马店,114.0189,32.9656,N
2421A,市彩印厂,驻马店,114.0114,33.015,N
2422A,天方二分厂,驻马店,113.9976,32.9771,N
2423A,沈家营,黄石,115.0601,30.2313,N
2424A,陈家湾,黄石,115.0817,30.2006,N
2425A,新下陆,黄石,114.9551,30.1765,N
2426A,铁山,黄石,114.8988,30.2019,N
2427A,团城山,黄石,115.0307,30.2092,N
2428A,武当山(对照点),十堰,111.0419,32.395,Y
2429A,滨河新村,十堰,110.78,32.6494,N
2430A,刘家沟,十堰,110.7258,32.6389,N
2431A,铁二处,十堰,110.8839,32.5714,N
2432A,襄城运动路,襄阳,112.155,32.0197,N
2433A,樊城新华路,襄阳,112.1392,32.0564,N
2434A,高新管委会,襄阳,112.1825,32.1142,N
2435A,襄州航空路,襄阳,112.2106,32.0903,N
2436A,市政府,鄂州,114.8938,30.3994,N
2437A,赵家坝,鄂州,114.8989,30.3714,N
2438A,凡口开发区,鄂州,114.8131,30.4133,N
2439A,竹园小学,荆门,112.2014,31.0481,N
2440A,掇刀,荆门,112.1969,30.9891,N
2441A,石化一小,荆门,112.2213,31.0386,N
2442A,市政府,荆门,112.1931,31.0375,Y
2443A,文化路,孝感,113.9153,30.9285,N
2444A,东城区,孝感,113.942,30.9075,N
2445A,大洲岛,黄冈,114.8857,30.4522,Y
2446A,职工中心,黄冈,114.9028,30.4742,N
2447A,森林公园(对照点),咸宁,114.3175,29.8142,Y
2448A,市发改委,咸宁,114.3107,29.8454,N
2449A,咸安区政府,咸宁,114.2936,29.8566,N
2450A,长江产业园,咸宁,114.3375,29.8683,N
2451A,市委党校,随州,113.3583,31.7275,N
2452A,市林业局,随州,113.3833,31.6908,N
2453A,市立交桥水厂,随州,113.3983,31.7308,N
2454A,湖北民院,恩施土家族苗族自治州,109.4978,30.2981,N
2455A,州电力总公司,恩施土家族苗族自治州,109.4707,30.2798,N
2456A,原169医院(对照点),衡阳,112.5003,26.9167,Y
2457A,衡阳化工总厂,衡阳,112.6194,26.9258,N
2458A,珠晖区环保局,衡阳,112.6211,26.8956,N
2459A,市委党校,衡阳,112.6197,26.8733,N
2460A,市监测站,衡阳,112.6006,26.8919,N
2461A,真空机电公司,衡阳,112.5664,26.9056,N
2462A,市水土所(对照点),邵阳,111.5239,27.3033,Y
2463A,市一中,邵阳,111.4733,27.2317,N
2464A,市化工厂,邵阳,111.5283,27.2442,N
2465A,市罐头厂,邵阳,111.4503,27.2537,N
2466A,市环保局,邵阳,111.4328,27.2272,N
2467A,甘溪港(对照点),益阳,112.4067,28.6428,Y
2468A,市环保局,益阳,112.3458,28.5808,N
2469A,市特殊教育学校,益阳,112.3437,28.5531,N
2470A,资阳区政务中心,益阳,112.3347,28.6047,N
2471A,赫山环保分局,益阳,112.3744,28.5819,N
2472A,马头岭(对照点),郴州,113.0073,25.9061,Y
2473A,市职中,郴州,113.0116,25.8226,N
2474A,兴隆步行街,郴州,113.0161,25.8001,N
2475A,市审计局,郴州,113.0383,25.8071,N
2476A,市环保局,郴州,113.0348,25.7759,N
2477A,零陵南津渡(对照点),永州,111.6217,26.2081,Y
2478A,市环境监测站,永州,111.6156,26.4214,N
2479A,零陵区环保局,永州,111.6236,26.2331,N
2480A,永州市环保局,永州,111.5992,26.4364,N
2481A,冷水滩区环保局,永州,111.5989,26.4519,N
2482A,林科所(对照点),怀化,109.5981,27.5721,Y
2483A,河西地税局,怀化,109.9453,27.5444,N
2484A,市四医院,怀化,109.9781,27.5342,N
2485A,监测楼,怀化,109.9972,27.5578,N
2486A,市委党校,怀化,110.0394,27.583,N
2487A,电视发射台(对照点),娄底,111.9589,27.8901,Y
2488A,市监测站,娄底,111.9975,27.725,N
2489A,市委党校,娄底,112.0194,27.7314,N
2490A,涟钢,娄底,111.9561,27.7569,N
2491A,市政府,娄底,111.9892,27.7044,N
2492A,跃进水库(对照点),湘西州,109.6414,28.2558,Y
2493A,州政府,湘西州,109.7325,28.3169,N
2494A,吉首市计生局,湘西州,109.6958,28.2675,N
2495A,市逸夫小学,梧州,111.3014,23.4832,N
2496A,市十一中,梧州,111.3239,23.4794,N
2497A,龙圩,梧州,111.247,23.4189,N
2498A,龙新,梧州,111.2711,23.4835,N
2499A,沙万,防城港,108.3411,21.6158,N
2500A,防城档案局,防城港,108.3514,21.7731,N
2501A,大海花园,防城港,108.3506,21.6414,N
2502A,市环保站,钦州,108.6236,21.9667,N
2503A,沙埠小学,钦州,108.6549,21.9481,N
2504A,港区一小,钦州,108.5989,21.7431,N
2505A,德智高中(对照点),贵港,109.568,23.1478,Y
2506A,江南子站,贵港,109.6047,23.0666,N
2507A,贵城子站,贵港,109.6014,23.0948,N
2508A,荷城子站,贵港,109.5669,23.1065,N
2509A,寒山水库(对照点),玉林,110.1106,22.7019,Y
2510A,市监测站,玉林,110.1675,22.6411,N
2511A,南江一中,玉林,110.1433,22.6164,N
2512A,市监测站,百色,106.6103,23.9011,N
2513A,市中心血站,百色,106.6538,23.8859,N
2514A,环保小区,贺州,111.5264,24.4172,N
2515A,政协大楼,贺州,111.5608,24.4078,N
2516A,东仁乐园(对照点),河池,108.2011,24.715,Y
2517A,市环保站,河池,108.0497,24.6947,N
2518A,市疾控中心,河池,108.0983,24.6989,N
2519A,来宾二中,来宾,109.2328,23.7361,N
2520A,来宾技工学校,来宾,109.2203,23.7256,N
2521A,市环保局江州分局,崇左,107.3476,22.4136,N
2522A,城南新区,崇左,107.3702,22.3707,N
2523A,黑石坡(对照点),广元,105.8945,32.4535,Y
2524A,老城,广元,105.821,32.4444,N
2525A,南坝,广元,105.8153,32.4246,N
2526A,监测站,广元,105.8628,32.4287,N
2527A,石溪浩(对照点),遂宁,105.5453,30.5678,Y
2528A,市监测站,遂宁,105.5582,30.5232,N
2529A,行政中心,遂宁,105.5861,30.5366,N
2530A,美宁食品公司,遂宁,105.5918,30.4728,N
2531A,市监测站,内江,105.0703,29.61,N
2532A,东兴区政府,内江,105.0717,29.5947,N
2533A,内江二中,内江,105.0653,29.5817,N
2534A,内江日报社,内江,105.0406,29.5822,N
2535A,花湖湾(对照点),乐山,103.7723,29.5462,Y
2536A,牛耳桥,乐山,103.7627,29.5844,N
2537A,市第三水厂,乐山,103.7508,29.6006,N
2538A,市监测站,乐山,103.7571,29.5664,N
2539A,黑龙滩水库(对照点),眉山,104.0308,30.0478,Y
2540A,气象局,眉山,103.8416,30.0874,N
2541A,旭光小区,眉山,103.8495,30.0691,N
2542A,市监测站,眉山,103.8341,30.062,N
2543A,小平旧居(对照点),广安,106.6308,30.5278,Y
2544A,市委,广安,106.6303,30.4576,N
2545A,友谊中学,广安,106.6271,30.4663,N
2546A,人工湖,广安,106.6406,30.4844,Y
2547A,广电花园,广安,106.6388,30.4551,N
2548A,达州职业技术学院(对照点),达州,107.5277,31.2827,Y
2549A,市环境监测站,达州,107.5086,31.2186,N
2550A,凤凰小区,达州,107.4988,31.2132,N
2551A,达县机关宾馆,达州,107.5082,31.1986,N
2552A,市政中心,达州,107.4644,31.2124,N
2553A,大兴526台(对照点),雅安,103.009,30.0125,Y
2554A,建安厂,雅安,103.0475,30.02,N
2555A,市政府,雅安,103.0111,29.9833,N
2556A,川农大,雅安,102.9905,29.9775,N
2557A,南龛公园,巴中,106.7583,31.8475,Y
2558A,市环保局,巴中,106.7389,31.8711,N
2559A,巴中中学,巴中,106.7594,31.8531,N
2560A,市六中,巴中,106.7608,31.8456,N
2561A,莲花山(对照点),资阳,104.6617,30.1372,Y
2562A,资阳中学,资阳,104.6356,30.1506,N
2563A,四三一厂,资阳,104.6295,30.1383,N
2564A,师范校,资阳,104.6463,30.1146,N
2565A,区法院,资阳,104.6296,30.1256,N
2566A,州农科所(对照点),阿坝藏族羌族自治州,102.1879,31.914,Y
2567A,州监测站,阿坝藏族羌族自治州,102.224,31.9037,N
2568A,马师校,阿坝藏族羌族自治州,102.2502,31.8896,N
2569A,将军桥,甘孜州,101.9628,30.0506,N
2570A,水桥子,甘孜藏族自治州,101.9603,30.0475,N
2571A,青龙寺(对照点),凉山彝族自治州,102.3431,27.8099,Y
2572A,邛海宾馆,凉山彝族自治州,102.2721,27.8415,N
2573A,西昌市政府,凉山彝族自治州,102.2625,27.898,N
2574A,凉山州政府,凉山彝族自治州,102.2685,27.8851,N
2575A,长安,凉山彝族自治州,102.237,27.8914,N
2576A,窑上(对照点),六盘水,104.8,26.5892,Y
2577A,黄土坡,六盘水,104.83,26.5917,N
2578A,水钢,六盘水,104.89,26.5939,N
2579A,民中,六盘水,104.8475,26.5894,N
2580A,双水,六盘水,104.9544,26.5506,N
2581A,虹机厂子校,安顺,105.9556,26.2611,N
2582A,市一中,安顺,105.9278,26.255,N
2583A,铁路子校,安顺,105.9394,26.2358,N
2584A,龙岩子校,安顺,105.8853,26.2392,N
2585A,铜仁卫校,铜仁地区,109.1839,27.7344,N
2586A,铜仁七中,铜仁地区,109.1753,27.6944,N
2587A,八中,毕节,105.2864,27.3125,N
2588A,师专,毕节,105.31,27.2944,N
2589A,场坝街,黔西南布依族苗族自治州,104.9022,25.0925,N
2590A,坪东大道,黔西南布依族苗族自治州,104.8811,25.0992,N
2591A,市环境监测站,黔东南苗族侗族自治州,107.9783,26.5747,N
2592A,马坡井小学,黔东南州,,,N
2593A,小围寨,黔南布依族苗族自治州,107.5228,26.2403,N
2594A,市环境监测站,保山,99.1678,25.1081,N
2595A,市环保局,保山,99.1711,25.1328,N
2596A,监测站,昭通,103.7667,27.3736,N
2597A,环保局,昭通,103.7225,27.3361,N
2598A,西南郊(对照点),丽江,100.2143,26.8576,Y
2599A,丽江古城,丽江,100.2497,26.8802,N
2600A,市中心,丽江,100.2203,26.8906,N
2601A,市环保局,普洱,100.98,22.7633,N
2602A,普洱第二中学,普洱,100.9817,22.8322,N
2603A,市环保局,临沧,100.0781,23.8982,N
2604A,市气象局,临沧,100.0894,23.8822,N
2605A,州环境监测站,楚雄州,101.5482,25.0441,N
2606A,市经济开发区,楚雄州,101.538,25.0492,N
2607A,雨过铺,红河州,103.3113,23.4626,N
2608A,污水处理厂,红河州,103.3772,23.3993,N
2609A,监测站,红河州,103.3861,23.35,N
2610A,州水务局,文山州,104.2533,23.3594,N
2611A,市便民服务中心,文山州,104.2319,23.3892,N
2612A,景洪市江南,西双版纳州,100.7939,22.0019,N
2613A,景洪市江北,西双版纳州,100.8017,22.0225,N
2614A,大理市环境监测站,大理州,100.1542,25.7054,N
2615A,大理古城,大理州,100.2171,25.5811,N
2616A,德宏州监测站,德宏州,98.5842,24.428,N
2617A,芒市建设局(停运200103),德宏州,98.578,24.441,Y
2618A,州监测站,怒江州,98.8601,25.8567,N
2619A,泸水一中,怒江州,98.8546,25.8417,N
2620A,古城（20180930停运）,迪庆州,99.7064,27.8136,N
2621A,迪庆州站,迪庆州,99.7056,27.8317,N
2622A,昌都监测站,昌都,97.1806,31.1273,N
2623A,昌都地区昌都坝(停运200514),昌都,97.1809,31.1254,Y
2624A,山南监测站,山南,91.7608,29.2313,N
2625A,山南人民医院,山南,91.7706,29.2436,N
2626A,日喀则监测站,日喀则,88.8876,29.2718,N
2627A,日喀则鸿达公司,日喀则,88.8931,29.2365,Y
2628A,那曲监测站,那曲地区,92.0657,31.4846,N
2629A,那曲嘉兴医院,那曲,92.0505,31.4733,N
2630A,阿里监测站,阿里地区,80.1161,32.5,N
2631A,阿里地委(20181130停用),阿里地区,80.0895,32.5039,Y
2632A,林芝监测站,林芝,94.3681,29.6376,N
2633A,林芝人民医院,林芝,94.3616,29.6616,N
2634A,汉川机床厂子校(对照点),汉中,106.9893,33.1842,Y
2635A,市监测站,汉中,107.0154,33.0706,N
2636A,鑫源开发区,汉中,107.0089,33.1138,N
2637A,南郑大河坎水厂,汉中,107.007,33.0323,N
2638A,红石峡森林公园(对照点),榆林,109.7414,38.3344,Y
2639A,世纪广场,榆林,109.7456,38.2911,N
2640A,实验中学,榆林,109.7289,38.2839,N
2641A,环保监测大楼,榆林,109.7336,38.2478,N
2642A,香溪洞(对照点),安康,109.0318,32.6537,Y
2643A,安康市监测站,安康,109.0281,32.6939,N
2644A,汉滨区检察院,安康,109.0072,32.6975,N
2645A,监测站,商洛,109.9154,33.8715,N
2646A,东龙山气象局,商洛,109.966,33.8509,N
2647A,第三小学,白银,104.1724,36.5446,N
2648A,动力公司,白银,104.1465,36.5482,N
2649A,麦积山(对照点),天水,106.0055,34.343,Y
2650A,公园小学,天水,105.7205,34.5786,N
2651A,麦积国土局,天水,105.8945,34.5538,N
2652A,监测站,武威,102.6201,37.9251,N
2653A,雷台(190211停运),武威,102.6469,37.9358,Y
2654A,润泉湖,张掖,100.4698,38.9524,N
2655A,区工会,张掖,100.4154,38.9422,N
2656A,聚贤嘉苑,平凉,106.6692,35.5461,N
2657A,博物馆,平凉,106.7021,35.5307,N
2658A,仓门街子站,酒泉,98.5061,39.7443,N
2659A,油田生活基地,酒泉,98.4989,39.7256,N
2660A,区环保局(对照点),庆阳,107.6831,35.7289,Y
2661A,庆阳五中,庆阳,107.6325,35.7357,N
2662A,市环保局,庆阳,107.6364,35.7067,N
2663A,东关小学,定西,104.6241,35.5734,N
2664A,供电公司,定西,104.6194,35.5934,N
2665A,汉王镇固水子(对照点),陇南,105.0822,33.3261,Y
2666A,市林业局,陇南,,,N
2667A,环保局,临夏回族自治州,103.2069,35.5993,N
2668A,建设大厦,临夏回族自治州,103.2417,35.6057,N
2669A,州政府,甘南州,102.9099,34.9841,N
2670A,平安县,海东地区,102.1086,36.4997,N
2671A,海晏县西海镇,海北藏族自治州,100.9048,36.9639,N
2672A,同仁县隆务镇,黄南藏族自治州,102.0199,35.5102,N
2673A,共和县恰卜恰镇,海南藏族自治州,100.6188,36.2866,N
2674A,玛沁县大武镇,果洛藏族自治州,100.2561,34.4714,N
2675A,玉树县结古镇,玉树藏族自治州,97,33.0014,N
2676A,德令哈市,海西蒙古族藏族自治州,97.3731,37.3753,N
2677A,教育园区,吴忠,106.1532,37.9648,N
2678A,高级中学,吴忠,106.2025,37.9844,N
2679A,新区二泵站,吴忠,106.1856,37.9956,N
2680A,沙坡头消防站(对照点),中卫,105.0025,37.4635,Y
2681A,官桥站,中卫,105.18,37.0172,N
2682A,环保局站,中卫,105.1971,37.5002,N
2683A,马园(对照点),固原,106.2319,36.1417,Y
2684A,监测站,固原,106.2792,36.0022,N
2685A,新区,固原,106.2375,36.0211,N
2686A,市环保局,吐鲁番地区,89.1904,42.9418,N
2687A,地区环保局,吐鲁番地区,89.1673,42.9559,N
2688A,地区监测站,哈密地区,93.5128,42.8172,N
2689A,哈密师范学校,哈密地区,93.4961,42.8328,N
2690A,天山天池(对照点),昌吉州,88.1236,43.8886,Y
2691A,州监测站,昌吉州,87.2997,44.0114,N
2692A,新区政务中心,昌吉州,87.2717,44.0297,N
2693A,市党校,博尔塔拉蒙古自治州,82.0485,44.8556,N
2694A,市环保局,博尔塔拉蒙古自治州,82.0806,44.8969,N
2695A,电视台,阿克苏地区,80.292,41.1694,N
2696A,艺术中心,阿克苏地区,80.2613,41.1551,N
2697A,市人民政府,克孜勒苏柯尔克孜自治州,76.1454,39.7142,N
2698A,巡警大队,喀什地区,76.0072,39.4467,N
2699A,吾办,喀什地区,75.9755,39.4694,N
2700A,市环境监测站,喀什地区,75.9538,39.4682,N
2701A,地区站(停运200629),和田地区,79.9485,37.1152,Y
2702A,古江巴格乡院内(停运200629),和田地区,79.9117,37.1013,Y
2703A,市环保局,伊犁哈萨克州,81.2815,43.9404,N
2704A,新政府片区,伊犁哈萨克州,81.2996,43.9174,N
2705A,第二水厂,伊犁哈萨克州,81.3364,43.941,N
2706A,东门外小游园,塔城地区,82.9994,46.7432,N
2707A,小东沟(对照点),阿勒泰地区,88.1214,47.9047,Y
2708A,市站,阿勒泰地区,88.1264,47.8517,N
2709A,艾青诗歌馆,石河子,86.0497,44.2967,N
2710A,阳光学校,石河子,86.0697,44.3075,N
2711A,农水大厦,五家渠,87.5475,44.1756,N
2835A,四十中小,攀枝花,101.7227,26.567,N
2842A,湖里中学,厦门,118.0936,24.5058,N
2845A,德盛苑,长治,113.1569,36.1911,N
2846A,体育西,广州,113.3221,23.1322,N
2858A,河西一经路,天津,117.7918,39.2474,N
2859A,津沽路,天津,117.3747,38.9846,N
2860A,宾水西道,天津,117.1589,39.0845,N
2862A,22中南校区,石家庄,114.5481,38.0378,N
2865A,榆次三中,晋中,112.7195,37.6828,N
2866A,外滩首府,运城,111.0522,35.0439,N
2867A,马茂庄小学,吕梁,111.1283,37.51,N
2868A,九站,吉林,126.4739,43.953,N
2869A,五台山医院,扬州,119.447,32.4155,N
2870A,市疾控中心,镇江,119.4424,32.1873,N
2871A,万里国际学校,宁波,121.6147,29.9017,N
2872A,南湖区残联,嘉兴,120.7846,30.7525,N
2873A,仁皇山新区,湖州,120.0875,30.8955,N
2874A,益益乳业工业园(停运200626),淮南,117.0412,32.64600,Y
2875A,阜阳职业技术学院,阜阳,115.784,32.8892,N
2876A,幼特教师范,潍坊,119.0841,36.7339,N
2877A,坊子邮政,潍坊,119.1641,36.6523,N
2878A,聊大东校,聊城,116.0072,36.4343,N
2880A,大石西路,成都,104.0219,30.6558,N
2881A,凯里学院,黔东南苗族侗族自治州,107.8908,26.5311,N
2882A,玉溪一中,玉溪,102.5389,24.3703,N
2883A,文体中心,玉溪,102.5381,24.3389,N
2884A,酒钢宾馆,嘉峪关,98.2672,39.7978,N
2885A,滨江中学,陇南,104.9339,33.3826,N
2894A,经济技术开发区消防队,淮南,117.0566,32.6531,N
2897A,沈辽西路,沈阳,123.2444,41.7347,N
2900A,裕农路,沈阳,123.5953,41.9086,N
2902A,北辰小学,广安,106.6351,30.4865,N
2907A,吴兴区站,湖州,120.1844,30.8596,N
2914A,苏山坪(对照点),巴中,106.7677,31.8794,Y
2915A,职业中学,巴中,106.7619,31.84139,N
2916A,老干部局(停运190815),池州,117.49,30.66,Y
2919A,河北工业大学,廊坊,116.7022,39.5453,N
2920A,蓝田镇,漳州,117.7116,24.506,N
2921A,树下王站,绍兴,120.5483,30.0003,N
2922A,大理道,天津,117.1941,39.1067,N
2923A,供排水公司(停运200102),大同,113.2803,40.1114,Y
2924A,水乡路,银川,106.2266,38.4418,N
2925A,上海东路,银川,106.2757,38.4842,N
2926A,文昌北街,银川,106.1015,38.497,N
2929A,红卫路,黄冈,114.8858,30.4519,N
2994A,武警支队(启用161031),金华,119.6533,29.1128,N
2996A,市供电局,宿迁,118.283,33.965,N
2997A,王营,泰州,119.8767,32.3289,N
2998A,胡沟管理处,连云港,119.3608,34.7519,Y
2999A,矿山设计院,连云港,119.1478,34.5911,Y
3000A,德源药业,连云港,119.3581,34.6972,N
3002A,行政中心,常州,119.9805,31.8174,N
3003A,经开区,常州,120.0522,31.7748,N
3004A,宝龙广场,盐城,120.1544,33.3663,N
3005A,鼓楼区政府,徐州,117.1814,34.29,N
3006A,铜山区招生办,徐州,117.1694,34.1781,N
3007A,新城一中,连云港,119.178,34.844,N
3008A,胡沟管理处,连云港,119.3608,34.7519,N
3009A,矿山设计院,连云港,119.1478,34.5911,N
3010A,钟楼,常州,119.9025,31.7964,N
3012A,西山林语,荆门,112.1849,31.0362,N
3014A,歇台子,重庆,106.4958,29.5346,N
3015A,龙井湾,重庆,106.4037,29.5728,N
3016A,龙洲湾,重庆,106.5507,29.4153,N
3018A,唐尧大酒店,临汾,111.505,36.1014,N
3019A,西沙,三沙,-,-,N
3020A,中山北路,天津,117.2101,39.1699,N
3021A,濮水河管理处,濮阳,115,35.7668,N
3022A,凯旋路小学,洛阳,112.4433,34.6686,N
3025A,技师学院,清远,113.0477,23.6344,N
3026A,市政府,潮州,116.6183,23.6608,N
3027A,青杠林路,自贡,104.72,29.3427,N
3028A,檀木林体育馆,自贡,104.776,29.3627,N
3033A,培训基地,乌鲁木齐,87.4651,43.4569,N
3034A,光明街小学,乌兰察布,113.1076,41.0385,N
3035A,北滨河,兴安盟,122.0931,46.0707,N
3036A,开发区管委会,东营,118.6904,37.4338,N
3038A,州图书馆,红河州,103.3758,23.368,N
3039A,三门峡市第一小学,三门峡,111.1911,34.7829,N
3045A,商州区中学,商洛,109.9643,33.8471,N
3046A,机电学校,南昌,115.9084,28.6062,N
3048A,九龙,福州,119.5799,26.0936,N
3051A,西四道,天津,117.3876,39.1488,N
3054A,市委党校,新乡,113.9194,35.2847,N
3055A,城北区政府,西宁,101.7775,36.6428,N
3057A,牟平检察院,烟台,121.5992,37.4014,N
3058A,银河街,赤峰,119.2658,42.0353,N
3059A,泰兴公司,济南,117.7161,36.2049,N
3061A,国华电力东,呼伦贝尔,119.7512,49.1577,N
3064A,莱芜战役纪念馆,济南,117.6867,36.2171,N
3065A,州环保局,甘孜藏族自治州,101.9533,29.9972,N
3066A,九衢泉纯净水厂,德州,116.2721,37.4379,N
3109A,赣县区卫计委,赣州,115.0093,25.8613,N
3122A,伍家关(对照点),安顺,105.9606,26.2611,Y
3123A,凤凰山,安顺,105.9408,26.2431,N
3124A,金钟山,安顺,105.9439,26.2564,N
3125A,娄家坡,安顺,105.8983,26.2481,N
3128A,那曲会议中心,那曲地区,92.0506,31.4797,N
3129A,平安高铁新区,海东地区,102.0306,36.5067,N
3131A,烟厂,张家口,114.879,40.7993,N
3132A,文明里,秦皇岛,119.610547,39.943889,N
3133A,上清寺,重庆,106.5468,29.5654,N
3134A,市一中,许昌,113.8172,34.0339,N
3136A,龙泉驿区区政府,成都,104.2725,30.5589,N
3137A,市委党校,眉山,103.8578,30.0744,N
3138A,武陵区永安,常德,111.7153,29.0289,N
3139A,鼎城区玉霞,常德,111.6892,28.9881,N
3140A,武陵区长庚,常德,111.6625,29.0531,N
3141A,信访局,安阳,114.3922,36.0878,N
3147A,龙亭公园,开封,114.3438,34.8106,N
3148A,区人社局,眉山,103.8291,30.0564,N
3149A,笔架山北路,黄石,115.0235,30.1578,N
3151A,宜春学院北校区,宜春,114.375,27.8097,N
3153A,民族大道182号,武汉,114.3877,30.4908,N
3164A,广陵建设局,扬州,119.4686,32.3942,N
3165A,两寺渡,咸阳,108.6594,34.2969,N
3169A,太极体育中心,焦作,113.2725,35.2071,N
3170A,市委党校,金昌,102.1864,38.5253,N
3171A,梁园区档案局,商丘,115.6071,34.4465,N
3173A,市人大,安庆,117.0598,30.5351,N
3178A,潍坊七中,潍坊,119.0587,36.721,N
3179A,官渡区博物馆,昆明,102.7494,25.0119,N
3180A,质量技术监督局,迪庆州,99.7136,27.8094,N
3182A,丽阳花园,巴中,106.7656,31.8545,N
3183A,圣泉水务公司,巴中,106.7418,31.8654,N
3184A,市委党校,哈尔滨,126.6203,45.7219,N
3185A,巨轮,太原,112.5628,37.8964,N
3186A,教育港,兰州,103.7158,36.1058,N
3187A,远航博物馆,宿州,116.9509,33.666,N
3188A,市城管局,衡水,115.6683,37.7217,N
3190A,外国语学校,九江,116.0254,29.6994,N
3191A,宿豫区政府,宿迁,118.3225,33.9447,N
3192A,阿里藏医院,阿里地区,80.0903,32.5028,N
3194A,管委会,荆州,112.2747,30.3122,N
3195A,市体育局,扬州,119.3633,32.3972,N
3200A,监控中心,聊城,115.9819,36.4978,N
3201A,东关招商场,武威,102.6486,37.9325,N
3204A,规划局,平顶山,113.3025,33.73,N
3206A,新钢沁园村,新余,114.9149,27.807,N
3207A,市政府原办公楼,滁州,118.3118,32.3038,N
3208A,市政府,忻州,112.7283,38.4153,N
3209A,宁德一中,宁德,119.5231,26.6562,N
3210A,汴京公园,开封,114.3644,34.7964,N
3216A,漳州党校,漳州,114.6622,24.5183,N
3237A,展览馆,池州,117.4918,30.6617,N
3238A,济民医院(对照点),芜湖,118.3954,31.3946,Y
3239A,银鹰制药,辽源,125.0764,42.9078,N
3241A,百合公园,兰州,103.7439,36.0842,N
3242A,和平,兰州,103.9611,35.998,N
3245A,新区管委会,兰州新区,103.6633,36.533,N
3246A,舟曲中学,兰州新区,103.6975,36.4789,N
3247A,市总工会,陇南,104.955,33.371,N
3248A,雄关区,嘉峪关,98.2643,39.7724,N
3265A,宝山庙行,上海,121.4316,31.3322,N
3266A,崇明上实东滩,上海,121.8791,31.4662,N
3268A,嘉定南翔,上海,121.3162,31.2838,N
3269A,金山新城,上海,121.3359,30.7456,N
3270A,闵行浦江,上海,121.4996,31.0739,N
3271A,青浦徐泾,上海,121.2886,31.1663,N
3272A,松江图书馆,上海,121.2186,31.0378,N
3273A,长宁仙霞,上海,121.3902,31.2059,N
3274A,浦东惠南,上海,121.7965,31.0507,N
3281A,延庆夏都,北京,115.9718,40.4529,N
3282A,大同市卫生学校,大同,113.3397,40.0597,N
3283A,滨河大厦,包头,109.9154,40.5685,N
3284A,海北新区,乌海,106.813,39.7274,N
3285A,北京八中,乌兰察布,113.1376,40.9509,N
3286A,桥北物流园区,赤峰,118.9359,42.3147,N
3287A,富润路1号,镇江,119.3842,32.1976,N
3288A,大泉街道,徐州,117.4754,34.4422,N
3289A,方洲路,苏州,120.743,31.3188,N
3290A,木渎中学,苏州,120.5031,31.2774,N
3291A,通州监测站,南通,121.067,32.062,N
3293A,月亮广场,盐城,120.1501,33.3367,N
3294A,引江管理处,扬州,119.5653,32.4222,N
3295A,姜堰区政府广场,泰州,120.1259,32.5099,N
3298A,从化街口,广州,113.5717,23.5491,N
3299A,白云竹料,广州,113.3472,23.3692,N
3300A,白云嘉禾,广州,113.2981,23.237,N
3301A,黄埔科学城,广州,113.4256,23.1716,N
3302A,番禺大学城,广州,113.3942,23.0483,N
3303A,南沙黄阁,广州,113.4922,22.8168,N
3304A,南沙街,广州,113.5342,22.7896,N
3305A,莲花,深圳,114.0731,22.559,N
3306A,民治,深圳,114.0261,22.6198,N
3307A,横岗,深圳,114.1871,22.6451,N
3308A,金湾,珠海,113.3494,22.0569,N
3311A,江海富民,江门,113.1075,22.5647,N
3313A,高要湖西,肇庆,112.4575,23.0166,N
3314A,惠阳秋长,惠州,114.4338,22.8134,N
3315A,梅龙,梅州,116.1233,24.2991,N
3317A,两阳中学,阳江,111.9765,21.8947,N
3318A,清新太和,清远,112.9903,23.7403,N
3319A,万江金泰,东莞,113.7338,23.0381,N
3320A,曲溪,揭阳,116.403,23.5699,N
3323A,青少年活动中心,张家口,115.2773,40.9724,N
3324A,河北水利电力学院,沧州,116.8136,38.3004,N
3325A,雍阳西道,天津,117.0365,39.3828,N
3326A,辛老路,天津,117.0296,39.0605,N
3327A,地纬路,天津,116.9638,38.9375,N
3328A,市气象局,芜湖,118.4209,31.3707,N
3329A,山南新区,淮南,117.0108,32.5893,N
3330A,杜集区检察院,淮北,116.8873,33.9836,N
3331A,图书馆,滁州,118.3267,32.2634,N
3332A,亳州学院,亳州,115.7633,33.8034,N
3333A,第八中学,池州,117.5627,30.695,N
3334A,第十二中学,池州,117.5038,30.6243,N
3335A,马村街道办,焦作,113.3137,35.2641,N
3336A,焦作技师学院,焦作,113.2465,35.2373,N
3337A,许昌学院,许昌,113.8614,34.0442,N
3338A,芙蓉广场,许昌,113.843,34.0823,N
3339A,小管楼,驻马店,114.0012,33.0412,N
3340A,伊滨,洛阳,112.6005,34.6326,N
3341A,中移产业园,洛阳,112.4951,34.6332,N
3342A,中心小学,伊春,128.4741,47.4346,N
3343A,检察院,伊春,128.6871,47.7369,N
3344A,双子河社区,伊春,128.8431,47.8474,N
3345A,中波台,七台河,131.0577,45.7879,N
3346A,安康,重庆,108.3872,31.1628,N
3347A,北山路,重庆,105.9017,29.3569,N
3348A,春阳街,重庆,105.839,30.1946,N
3349A,人民东路,重庆,107.7983,30.6758,N
3350A,滩子口,重庆,106.6479,29.0244,N
3351A,棠香,重庆,105.7167,29.7076,N
3352A,桃源西路,重庆,107.0732,29.8617,N
3353A,迎宾大道,重庆,107.3535,29.7287,N
3354A,舟白,重庆,108.815,29.5081,N
3355A,周家坝,重庆,108.3679,30.8426,N
3356A,百安坝,重庆,108.4319,30.7555,N
3357A,金博路,成都,104.0106,30.6931,N
3358A,临江路,成都,103.8458,30.6994,N
3359A,华阳,成都,104.0578,30.5225,N
3360A,南湖救助站,自贡,104.7894,29.3194,N
3361A,理工大学,乐山,103.7311,29.5628,N
3362A,即墨2号,青岛,120.5014,36.4034,N
3363A,新区,淄博,117.9883,36.8372,N
3364A,市环保局,枣庄,117.3152,34.8103,N
3365A,垦利区民丰路,东营,118.5719,37.565,N
3366A,中国农业大学,烟台,121.5206,37.4336,N
3368A,高新实验学校,潍坊,119.1977,36.6872,N
3369A,开发区幼儿园,临沂,118.3977,35.0278,N
3370A,十里堡居委,临沂,118.3564,35.0215,N
3371A,开发区人民医院,德州,116.3728,37.4403,N
3372A,太阳城中学,德州,116.3572,37.4094,N
3374A,定陶老年大学,菏泽,115.5564,35.0891,N
3375A,青年创业园,昆明,102.8017,24.8336,N
3376A,南苑二区,曲靖,103.7947,25.462,N
3377A,曲靖师范学院,曲靖,103.7444,25.5261,N
3378A,老边实验中学,营口,122.371,40.6771,N
3379A,鲅鱼圈市民活动中心,营口,122.1139,40.2278,N
3380A,甘肃民族师范学院,甘南州,102.8914,34.9617,N
3396A,襄城隆中路,襄阳,112.0828,32.0067,N
3397A,高新台子湾,襄阳,112.1214,32.1008,N
3398A,市林业局,黄冈,114.9136,30.4445,N
3399A,师范学院,衡阳,112.6703,26.882,N
3400A,龙潭自来水厂,北海,109.1911,21.4415,N
3401A,红星社区,南宁,108.4834,22.7618,N
3402A,市二中,柳州,109.5422,24.3996,N
3403A,创业大厦,桂林,110.1764,25.2381,N
3404A,北职校,钦州,108.5959,21.9633,N
3405A,新世纪学校,贵港,109.5886,23.1172,N
3406A,祈福高中,百色,106.6085,23.8798,N
3407A,秀洲住建,嘉兴,120.6916,30.7739,N
3408A,绍兴中专,绍兴,120.5683,29.9361,N
3409A,柯桥区政府,绍兴,120.4906,30.0861,N
3410A,重华小学,绍兴,120.8752,30.0249,N
3411A,上虞中学,绍兴,120.8369,30.0137,N
3413A,广丰区教体局,上饶,118.1953,28.4401,N
3414A,桑海产业园,赣江新区,115.8347,28.932,N
3415A,万载县环保局,宜春,114.4519,28.0828,N
3416A,潍坊学院,潍坊,119.1755,36.7149,N
3417A,平谷新城,北京,117.0709,40.1465,N
3418A,密云新城,北京,116.8336,40.4095,N
3419A,包头市委党校,包头,109.9447,40.6261,N
3421A,市委党校,乌兰察布,113.1775,40.9779,N
3422A,江宁彩虹桥,南京,118.8436,31.9198,N
3423A,溧水永阳,南京,119.0138,31.6494,N
3424A,高淳老职中,南京,118.879,31.3302,N
3425A,越秀幼儿园,苏州,120.624,31.1733,N
3426A,新华书店,淮安,118.8755,33.2894,N
3427A,六合雄州,南京,118.8554,32.3578,N
3428A,华庄,无锡,120.3142,31.4753,N
3429A,武进经发区,常州,119.8598,31.7066,N
3430A,金坛城区,常州,119.5826,31.7245,N
3431A,高铁新城,苏州,120.6505,31.416,N
3432A,环境教育馆,南通,120.9348,31.9883,N
3434A,工贸学校,连云港,119.2413,34.6539,N
3435A,周山河街区,泰州,119.9192,32.4322,N
3436A,大丰高级中学,盐城,120.4279,33.205,N
3437A,达坂城区环保局,乌鲁木齐,88.3118,43.3658,N
3438A,红光山片区,乌鲁木齐,87.6162,43.8801,N
3439A,新师大温泉校区,乌鲁木齐,87.7024,43.8004,N
3440A,大绿谷,乌鲁木齐,87.4921,43.8411,N
3441A,经开区管委会,五家渠,87.546,44.1912,N
3442A,南区管委会,石河子,86.047,44.2331,N
3443A,花都梯面,广州,113.2902,23.5544,N
3444A,潮南峡山,汕头,116.454,23.2684,N
3445A,从化良口,广州,113.7858,23.7478,N
3446A,增城荔城,广州,113.8051,23.2614,N
3447A,坪山,深圳,114.3551,22.7151,N
3448A,横琴,珠海,113.5433,22.1163,N
3449A,新会银湖,江门,113.05,22.4667,N
3450A,电白水东,茂名,111.01,21.5165,N
3451A,鼎湖凤凰,肇庆,112.5617,23.2083,N
3452A,大亚湾霞涌,惠州,114.6517,22.775,N
3453A,阳东陶然,阳江,112.0125,21.8749,N
3454A,中山南区,中山,113.3528,22.478,N
3455A,清城东城,清远,113.076,23.7198,N
3456A,鹿泉一中,石家庄,114.289,38.0906,N
3457A,冀东油田职工医院,唐山,118.4359,39.2762,N
3458A,香泉濮院小区,邯郸,114.7895,36.5593,N
3459A,地表水厂,衡水,115.5989,37.5491,N
3460A,北环路,天津,117.4067,40.0583,N
3461A,建设路,天津,117.3045,39.7169,N
3462A,滨水东路,天津,117.8199,39.3521,N
3463A,社会福利中心,宿州,116.9708,33.591,N
3464A,高教基地,合肥,117.3803,31.9147,N
3465A,清苑社区,芜湖,118.4781,31.3225,N
3466A,扬子职业技术学院,芜湖,118.2746,31.2326,N
3468A,市规划展馆,阜阳,115.7901,32.8613,N
3469A,枣园社区,阜阳,115.836,32.9183,N
3470A,夏渡子站,宣城,118.7724,30.9141,N
3471A,惠济区政府,郑州,113.616563,34.86783,N
3473A,技师学院,开封,114.2485,34.8306,N
3474A,大新区,鹤壁,114.2617,35.6822,N
3475A,市政府,新乡,113.9188,35.3045,N
3476A,河师大,新乡,113.9135,35.3327,N
3477A,中站许衡医院,焦作,113.1656,35.2539,N
3478A,市图书馆,漯河,113.9749,33.5664,N
3479A,召陵区卫健委,漯河,114.0967,33.5906,N
3480A,美溪镇,伊春,129.1368,47.6417,N
3481A,萨区政府监测点,大庆,125.141,46.634,N
3482A,芙蓉中路,重庆,107.7541,29.3277,N
3483A,西山,重庆,108.7661,29.5368,N
3484A,行政中心,重庆,106.2628,29.32,N
3485A,高寺路,重庆,107.0944,29.1608,N
3486A,植物园,四平,124.4036,43.1411,N
3487A,车城东七路,成都,104.2394,30.5319,N
3488A,青白江技师分院,成都,104.3853,30.7453,N
3489A,科学城,成都,104.0789,30.4072,N
3490A,纳溪区环保局,泸州,105.3617,28.7703,N
3491A,西科大附属小学,绵阳,104.69,31.5322,N
3492A,安州区旅游局,绵阳,104.5648,31.5343,N
3494A,济阳区政府,济南,117.1673,36.9782,N
3495A,锦屏中学,济南,117.1171,36.63,N
3496A,南坊新区,临沂,118.3604,35.1084,N
3498A,河口城区,东营,118.5055,37.8612,N
3500A,北湖一中,济宁,116.5814,35.3707,N
3501A,服务中心,济宁,116.8249,35.5593,N
3502A,国网新校,泰安,117.1812,36.2275,N
3503A,交通技校,泰安,117.0313,36.2018,N
3504A,山东第一医科大学,泰安,117.0829,36.13,N
3505A,临港区管委会,威海,122.1379,37.3414,N
3507A,职业技术学院,日照,119.5328,35.4625,N
3511A,陵城艺术中心,德州,116.5652,37.3319,N
3512A,华润纺织,聊城,116.049,36.4674,N
3513A,九州社区,聊城,116.0445,36.4361,N
3514A,中海酒店,滨州,117.9378,37.3956,N
3515A,开发区一中,滨州,117.9378,37.3553,N
3516A,金海六路,滨州,118.0917,37.694,N
3520A,妇女儿童医院,石嘴山,106.3495,38.9836,N
3521A,石大公路,石嘴山,106.7492,39.2069,N
3522A,原州区十五小,固原,106.2177,35.9959,N
3523A,滨河新区,银川,106.5105,38.3856,N
3524A,文体局,西安,108.6116,34.1164,N
3525A,奥体中心,咸阳,108.6396,34.4078,N
3526A,吴航,福州,119.5189,25.9664,N
3527A,集美中学,厦门,118.0958,24.5688,N
3528A,同安二实小,厦门,118.1493,24.7245,N
3529A,城华南路,泉州,118.6333,24.9264,N
3530A,西洋坪路,漳州,117.6296,24.5314,N
3531A,旅游学院,桂林,110.296,25.1253,N
3532A,玉林师范学院东校区,玉林,110.1945,22.6831,N
3533A,福绵环保局,玉林,110.0527,22.5893,N
3534A,西湾,贺州,111.4744,24.4553,N
3535A,兴宾区政府,来宾,109.1781,23.7297,N
3536A,第十二小学,遵义,106.8547,27.5919,N
3537A,长征村,毕节,105.3631,27.3533,N
3538A,沙坝,黔南布依族苗族自治州,107.5175,26.2978,N
3539A,桂林洋子站,海口,110.5111,19.9736,N
3540A,君悦子站,三亚,109.7348,18.3443,N
3541A,第一中学子站,儋州,109.5726,19.5167,N
3542A,东坡学校子站,儋州,109.5567,19.5187,N
3543A,永兴岛子站,三沙,112.3466,16.8396,N
3544A,奉贤南桥新城,上海,121.4891,30.925,N
3545A,郧阳区金沙路,十堰,110.8054,32.8401,N
3546A,猇亭区张家湾站,宜昌,111.4606,30.552,N
3547A,龙泉中学南校,荆门,112.1632,31.0138,N
3548A,学苑路,荆州,112.1655,30.3364,N
3549A,龙凤新区,恩施土家族苗族自治州,109.5061,30.3772,N
3550A,昆明学院,昆明,102.7997,24.9786,N
3551A,晋宁区生态环境分局,昆明,102.5967,24.6736,N
3552A,云天化总部,昆明,102.6678,24.9856,N
3557A,镇二中,杭州,119.9464,30.0494,N
3558A,市府大楼,杭州,119.7183,30.2367,N
3560A,柯桥妇保,绍兴,120.4722,30.0415,N
3561A,茶山,温州,120.6985,27.9251,N
3562A,南浔区站,湖州,120.4148,30.8538,N
3564A,台州科技职业学院,台州,121.2568,28.6681,N
3565A,云冈站,大同,113.1367,40.1122,N
3566A,图书馆,大同,113.1186,40.2556,N
3567A,区一中,大同,113.5931,40.0461,N
3568A,向阳小学,长治,113.06,36.0464,N
3569A,屯留一中,长治,112.8792,36.3144,N
3570A,潞城四中,长治,113.235,36.3489,N
3571A,一水厂,朔州,112.2931,39.53,N
3572A,栾城区政府,石家庄,114.6419615,37.9001925,N
3573A,藁城区实验学校,石家庄,114.8506765,38.0322033,N
3574A,井陉矿区区委大楼,石家庄,114.0504658,38.0591645,N
3575A,正泰大街热力站,唐山,118.09279,39.58089,N
3576A,丰润区政府,唐山,118.1562,39.8322,N
3577A,金山小学,唐山,118.43673,39.73809,N
3578A,政府服务中心,唐山,118.24498,39.66941,N
3579A,永年区实验高中,邯郸,114.50634,36.77178,N
3580A,峰峰矿区临水派出所,邯郸,114.20016,36.44293,N
3581A,满城区生态环境分局,保定,115.31981,38.95208,N
3582A,清苑区第二中学,保定,115.47694,38.76408,N
3583A,徐水物探局,保定,115.62909,39.02311,N
3584A,容城县环境保护局,雄安新区,115.8844,39.0341,N
3585A,河北容城中学,雄安新区,115.8665,39.0645,N
3586A,安新县民政局,雄安新区,115.923,38.9405,N
3587A,安新县电力局,雄安新区,115.9324,38.9338,N
3588A,雄县环境保护局,雄安新区,116.0901,38.9816,N
3589A,雄县国土资源局,雄安新区,116.1105,39.0046,N
3590A,北区建设指挥部,郑州,113.8374,34.5589,N
3591A,上街区政府,郑州,113.30952,34.803229,N
3592A,祥符区生态环境局,开封,114.4644,34.7556,N
3593A,吉利监测站,洛阳,112.5736,34.8993,N
3594A,石龙区,平顶山,112.8867,33.9116,N
3596A,南山宾馆,鹤壁,114.1572,35.9603,N
3597A,建安区兴业大厦,许昌,113.8134,34.1251,N
3598A,富达温泉假日酒店,三门峡,111.1,34.7167,N
3599A,书院路,重庆,106.2649,29.9851,N
3600A,虎峰,重庆,106.2339,29.5559,N
3601A,龙门街,重庆,106.0499,29.8342,N
3604A,岚山环保分局,日照,119.3266,35.1044,N
3605A,无线电监控中心,西安,109.09,34.5236,N
3606A,北杜,西咸新区,108.7108,34.46,N
3607A,同德佳苑,西咸新区,108.7096,34.2956,N
3608A,崇文塔,西咸新区,108.8558,34.4978,N
3610A,昌元,重庆,105.5933,29.4105,N
3612A,白碱滩区新站,克拉玛依,85.1045,45.6899,N
3613A,亚心广场,昌吉州,87.3095,44.0142,N
3614A,地区环保局,和田地区,79.924,37.0877,N
3615A,市环保局,和田地区,79.9131,37.113,N
3616A,市中心医院,巴中,106.7616,31.8344,N
3617A,经开区,广元,105.8047,32.4166,N
3618A,金胜,太原,112.4701,37.782,N
3619A,龙柱,阳泉,113.617,37.8571,N
3620A,泽州一中,晋城,112.8271,35.4828,N
3621A,聚英学校,乌海,106.8288,39.6778,N
3622A,碧湖山庄,韶关,113.5556,24.8082,N
3623A,西乡,深圳,113.8953,22.5861,N
3624A,潮南子站,汕头,116.4069,23.2533,N
3625A,容桂街道办,佛山,113.2544,22.7642,N
3626A,南城元岭,东莞,113.7533,23.0202,N
3627A,东城主山,东莞,113.7875,23.0457,N
3628A,文笔,云浮,112.0336,22.9374,N
3629A,世纪职校,西宁,101.8305,36.5786,N
3630A,师大城西校区,西宁,101.7413,36.6397,N
3631A,高新区,石家庄,114.6063,38.0266,N
3633A,雨山,马鞍山,118.4918,31.6809,N
3634A,宿州学院,宿州,116.9884,33.6305,N
3635A,河科大西苑校区,洛阳,112.3677,34.662,N
3636A,英才小学,洛阳,112.4388,34.6781,N
3637A,人民广场,七台河,131.0176,45.7761,N
3638A,轻化工大学,自贡,104.7636,29.3338,N
3639A,市教育局,德阳,104.4019,31.1244,N
3642A,市北区南部,青岛,120.3503,36.0736,N
3643A,李沧区北部,青岛,120.3948,36.1805,N
3644A,三金集团,淄博,117.8661,36.805,N
3645A,东风化工厂,淄博,118.0253,36.8406,N
3646A,胜利站,东营,118.4978,37.4623,N
3647A,菏泽医专,菏泽,115.4702,35.2706,N
3648A,文卫南街,吴忠,106.2112,37.9768,N
3650A,沙坡头区政府站,中卫,105.1698,37.5162,N
3651A,旺旺集团,铜川,108.9543,34.8732,N
3652A,西北局旧址,延安,109.4809,36.5786,N
3653A,云深路,宜昌,111.3119,30.7273,N
3654A,精准医疗中心,鄂州,114.8094,30.4089,N
3655A,长江产业园,咸宁,114.3375,29.8683,N
3656A,消防大队,杭州,120.1556,30.2864,N
3658A,袍江中学,绍兴,120.6153,30.0764,N
3659A,气象局,金华,119.656,29.1131,N
3661A,坝陵桥,太原,112.5667,37.8875,N
3662A,富区青少年活动中心,齐齐哈尔,123.6333,47.2075,N
3663A,红旗社区,大兴安岭地区,124.1164,50.4278,N
3664A,连云街道,连云港,119.4172,34.7341,N
3665A,克州文化中心,克孜勒苏柯尔克孜自治州,76.1658,39.7157,N
3667A,水利职院,运城,111.0283,35.0547,N
3668A,城南,临汾,111.5036,36.0414,N
3669A,左辅环卫站,安阳,114.4705,36.0637,N
3670A,禹都公园,运城,111.0522,35.0439,N
3671A,门头沟三家店,北京,116.088,39.9726,N
3672A,丰台云岗,北京,116.1541,39.8204,N
3673A,通州东关,北京,116.6804,39.9081,N
3674A,房山燕山,北京,115.9577,39.7603,N
3675A,大兴旧宫,北京,116.4672,39.7733,N
3676A,第二人民医院,大同,113.2802,40.0995,N
3677A,芒市人民政府综合楼,德宏州,98.5881,24.4368,N
3678A,市第七中学,济宁,116.5907,35.4054,N
3682A,济南四建,济南,116.9814,36.6819,N
3683A,昆区政府,包头,109.8331,40.6576,N
3684A,新建矿广场,七台河,130.8781,45.8222,N
3685A,双创科技城,上饶,117.897,28.4315,N
3689A,行政服务中心,新乡,113.9003,35.372,N
3690A,外国语学校,南昌,115.9721,28.7031,N
3692A,消防缸窑路中队,唐山,118.2059,39.6585,N
3693A,路南电大,唐山,118.1436,39.6202,N
3694A,延庆石河营,北京,115.986,40.4563,N
3695A,怀柔新城,北京,116.6151,40.3053,N
3696A,丰台小屯,北京,116.2545,39.8768,N
3697A,密云镇,北京,116.84,40.3844,N
3698A,红旗小学,呼和浩特,111.5968,40.8178,N
3699A,海东办,呼和浩特,111.6518,40.8389,N
3700A,康养中心(对照点),雅安,103.0456,29.9956,Y
3701A,皖北煤电集团,宿州,116.9648,33.6252,N
3703A,安钢职工学校,安阳,114.2917,36.0949,N
3706A,老干部活动中心,通辽,122.2584,43.6333,N
3707A,欧美日汽修厂,鸡西,131.0207,45.3073,N
3708A,东方明珠社区,通辽,122.2922,43.6189,N
3709A,市政设施管理处,鸡西,130.9967,45.3106,N
3710A,白沙活动中心,宁波,121.5594,29.8975,N
3713A,世纪城,四平,124.3419,43.1666,N
3715A,蚌埠田家炳中学,蚌埠,117.3092,32.9314,N
3719A,昌都会议中心,昌都,97.1714,31.1406,N
3726A,林业技术推广中心,日喀则,88.8781,29.2426,N
3728A,白酒学院,宜宾,104.68,28.8071,N
3734A,理想之城,东营,118.35,37.26,N
3860A,皇山花园小区,临沂,118.3920,35.0300,N
3861A,寒亭区实验一小,潍坊,119.2041,36.7699,N
3866A,三高中,营口,122.2469,40.66302,N
3867A,平安区公安北苑,海东地区,102.0738,36.5056,N
